dept,name,street,postalCode,city,lat,lon
01,Centre d'incendie et de secours d'Ambérieu-en-Bugey,23 Rue du Professeur Luc Montagnier,01500,Ambérieu-en-Bugey,45.982183,5.351847
01,Centre d'incendie et de secours d'Ambérieux-en-Dombes,2bis Route du Gouverneur,01330,Ambérieux-en-Dombes,45.995827,4.904932
01,Ambronay,3 Chemin des Maladières,01500,Ambronay,46.006002,5.358523
01,,20 Place de la Mairie,01110,Aranc,46.003248,5.508286
01,Centre de Première Intervention d'Ars-sur-Formans,521 Chemin du Bois de la Dame,01480,Ars-sur-Formans,45.990673,4.817511
01,Centre d'incendie et de secours d'Artemare,3 Chemin de Tornaval,01510,Artemare,45.866042,5.688176
01,CIS de Balan,18 Lotissement Parc des Chenes,01360,Balan,45.836706,5.094600
01,Caserne de Pompiers de Beaupont,66 Route du Souget,01270,Beaupont,46.409691,5.258995
01,Centre d'incendie et de secours de Belley,253 Che du Commun,01300,Belley,45.756871,5.704059
01,,101 Route de la Fauconniere,01130,Belleydoux,46.255169,5.779944
01,Pompiers de Beynost,70 Avenue du Mont,01700,Beynost,45.840278,5.000833
01,Centre de secours principal de Bourg-en-Bresse,200 avenue capitaine dhonne,01000,Bourg-en-Bresse,46.218473,5.244059
01,Centre d'incendie et de secours de Brégnier-Cordon,146 Rue Espace Rhône,01300,Brégnier-Cordon,45.640625,5.624543
01,,239 Route de Montrevel,01340,Bresse Vallons,46.333571,5.183157
01,,680 Grande Rue,01360,Bressolles,45.867940,5.097201
01,CPI Cessy,475 Rue de la Mairie,01170,Cessy,46.315464,6.069232
01,,1 Rue Jean Quatre,01250,Ceyzériat,46.178652,5.322506
01,Centre d'incendie et de secours de Chalamont,5 Zone Artisanale le Creuzat,01320,Chalamont,46.003751,5.172512
01,Caserne des pompiers,169 Rue Neuve,01410,Champfromier,46.193231,5.817294
01,,Route de Bocconod,01420,Chanay,46.005285,5.783027
01,Caserne de pompiers,10 Rue de l'Eglise,01130,Charix,46.183096,5.686018
01,Centre de première intervention de Charnoz-sur-Ain,40 Rue de Monétroi,01800,Charnoz-sur-Ain,45.867423,5.221770
01,Centre d'incendie et de secours de Châtillon-sur-Chalaronne,246 Avenue Jean Jaurès,01400,Châtillon-sur-Chalaronne,46.116555,4.962733
01,CPI Chevry,6 Route de Flies,01170,Chevry,46.279379,6.035800
01,Centre d'incendie et de secours de Chézery-Forens,152 Route de Confort,01410,Chézery-Forens,46.220551,5.866134
01,Sapeurs Pompiers,337 Route de Lyon,01390,Civrieux,45.918951,4.883870
01,Centre d'incendie et de secours de Coligny,230 Rte du Revermont,01270,Coligny,46.378880,5.345109
01,Centre d'incendie et de secours de Collonges,157 Rue de la Bière,01550,Collonges,46.138103,5.905847
01,,105 Impasse des Ravens,01300,Contrevoz,45.804313,5.629975
01,Centre d'incendie et de secours de Cormoranche-sur-Saône,Rue de la Caserne,01290,Cormoranche-sur-Saône,46.242345,4.829708
01,Centre d'incendie et de secours de Corveissiat,722 Rue de Chanoz,01250,Corveissiat,46.239259,5.474258
01,CPI Crozet,55 Impasse du Mont-blanc,01170,Crozet,46.282081,6.015798
01,Centre d'incendie et de secours de Culoz,104 Rue Claudius Richard,01350,Culoz-Béon,45.846713,5.787681
01,Centre d'incendie et de secours de Dorlan,3 Rue du 21 Juillet 1944,01590,Dortan,46.320847,5.656432
01,CPI Echenevex,10c Chemin du Couilloux,01170,Échenevex,46.306236,6.034266
01,Centre de Première Intervention de Fareins,42 Chemin des Granges,01480,Fareins,46.017601,4.766956
01,Centre d'incendie et de secours de Feillens,380 Grande Rue,01570,Feillens,46.332306,4.886611
01,Centre d'incendie et de secours de Gex-Divonne,39 rue chardenie,01170,Gex,46.339623,6.077491
01,Centre d'incendie et de secours de Grièges,96 Impasse des Platanes,01290,Grièges,46.255553,4.849607
01,CPINI Grily,117 Chemin Jacques Belay,01220,Grilly,46.332339,6.114455
01,,122 Route de la Sauge,01300,Groslée-Saint-Benoit,45.693958,5.585883
01,Centre d'incendie et de secours du Petit-Abergement,15 Voie Romaine,01260,Haut Valromey,46.034000,5.662058
01,Centre d'incendie et de secours d'Izernore,76 Rue de la Courbe,01580,Izernore,46.217652,5.552134
01,Centre d'incendie et de secours de Jassans-Riottier,364 Rue du Marmont,01480,Jassans-Riottier,45.987333,4.761705
01,Centre d'incendie et de secours de Jasseron,56 Rue Julien Manissier,01250,Jasseron,46.211651,5.324648
01,Centre d'incendie et de secours de Jujurieux,410 Route de Neuville,01640,Jujurieux,46.038694,5.399901
01,,59 Rue de Munetville,01400,L'Abergement-Clémenciat,46.150916,4.921134
01,Centre d'incendie et de secours de Lagnieu,350 Allée Guy de la Verpilliere,01150,Lagnieu,45.897547,5.352225
01,La batteuse,63 Route du Plateau,01130,Le Poizat-Lalleyriat,46.157531,5.717308
01,CPI Léaz,29 Route de Genève,01200,Léaz,46.099318,5.880085
01,,64 Place de l’Église,01150,Leyment,45.923589,5.296400
01,Centre d'incendie et de secours de Lhuis,502 Route du Pont de Groslee,01680,Lhuis,45.741314,5.536860
01,Centre d'incendie et de secours de Plaine-de-l'Ain,34 Rue de l'Industrie,01360,Loyettes,45.795302,5.211312
01,,161 Chemin des Carrons,01570,Manziat,46.353097,4.902264
01,Centre d'incendie et de secours de Marboz,241 Route des Granges,01851,Marboz,46.342872,5.253819
01,Centre d'incendie et de secours de Meximieux-Pérouges,20a Avenue du Docteur Boyer,01800,Meximieux,45.906190,5.195434
01,Centre d'incendie et de secours de Lelex,5420 Route de la Vallée,01170,Mijoux,46.322660,5.954936
01,,Route de Strasbourg,01700,Miribel,45.871386,4.911947
01,Centre d'incendie et de secours de Miribel,1920 Grande Rue,01700,Miribel,45.825776,4.964340
01,Centre d'incendie et de secours de Montagnat,2122 Route du Village,01250,Montagnat,46.172183,5.289659
01,Centre d'incendie et de secours de Montagnieu,78 Chemin Derriere les Granges,01470,Montagnieu,45.797392,5.456018
01,Centre d'incendie et de secours de Montmerle-sur-Saône,34bis Chemin des Mûriers,01090,Montmerle-sur-Saône,46.074938,4.763966
01,Centre d'incendie et de secours de Montréal-la-Cluse,2 Avenue Francois Prosper de Douglas,01460,Montréal-la-Cluse,46.184592,5.576093
01,Centre d'incendie et de secours de Nantua-Montréal,4 Impasse des Cléselles,01460,Montréal-la-Cluse,46.182523,5.578373
01,Centre d'incendie et de secours de Montrevel-en-Bresse,112 Route de Cuet,01340,Montrevel-en-Bresse,46.331052,5.118504
01,Centre d'incendie et de secours de Nantua,15 Rue du Docteur Levrat,01130,Nantua,46.153299,5.602082
01,Centre d'incendie et de secours de Neuville-les-Dames,57 Allee Henri Martin,01400,Neuville-les-Dames,46.159693,5.005725
01,,17 Rue du Revermont,01160,Neuville-sur-Ain,46.081698,5.371230
01,Centre d'incendie et de secours de Montluel,1115 ZA les Cedres Bleus,01120,Niévroz,45.837629,5.050645
01,CPI Ornex,45 Rue de Bejoud,01210,Ornex,46.276271,6.093231
01,Centre d'incendie et de secours d'Oyonnax,35a Route de Marchon,01100,Oyonnax,46.268034,5.662990
01,,119 Rue du Bugey,01300,Parves et Nattages,45.741808,5.742262
01,Centre d'incendie et de secours de Seillon,155 Allée du Thioudet,01960,Péronnas,46.170761,5.195035
01,Centre d'incendie et de secours de Pirajoux,75 rue du village,01270,Pirajoux,46.371572,5.299306
01,,50 Rue du Hangar,01110,Plateau d'Hauteville,45.953262,5.609957
01,Centre d'incendie et de secours d'Hauteville-Lompnes,170 Avenue de Bourg,01110,Plateau d'Hauteville,45.981272,5.596246
01,Centre d'incendie et de secours de Trois Logis,168 Rue de Presle,01310,Polliat,46.249853,5.111556
01,Centre d'incendie et de secours de Poncin,25 Avenue de la première Armee Française Rhin et Danube,01450,Poncin,46.080944,5.413153
01,Centre d'incendie et de secours de Pont-d'Ain,ZI Sud,01160,Pont-d'Ain,46.046503,5.326208
01,Centre d'incendie et de secours de Pont-de-Vaux,65 Place Docteur Eugene Pillard,01190,Pont-de-Vaux,46.433943,4.939987
01,Centre d'incendie et de secours de Pont-de-Veyle,25 Avenue des Sports,01290,Pont-de-Veyle,46.263528,4.883576
01,Centre d'incendie et de secours Est-Gessien,199 Route du Nant,01280,Prévessin-Moëns,46.248814,6.085740
01,Centre d'incendie et de secours de Saint-André-de-Corcy,772 Rue de l'Industrie,01390,Saint-André-de-Corcy,45.935108,4.960702
01,Centre d'incendie et de secours de Saint-Cyr-sur-Menthon,254 Route des Communaux,01380,Saint-Cyr-sur-Menthon,46.275089,4.959771
01,CPI Saint-Genis-Pouilly,196 Rue du Mont Blanc,01630,Saint-Genis-Pouilly,46.255772,6.029203
01,CPI Saint-Jean-de-Gonville,300 Chemin de Grand Champ,01630,Saint-Jean-de-Gonville,46.208626,5.953458
01,Centre d'incendie et de secours de Saint-Jean-sur-Veyle,52 Rue du Vieux Puits,01290,Saint-Jean-sur-Veyle,46.257283,4.915555
01,,6 Rue de la Fromagerie,01430,Saint-Martin-du-Frêne,46.139505,5.554081
01,Pompiers de Saint-Maurice-de-Beynost,9 Rue des Hirondelles,01700,Saint-Maurice-de-Beynost,45.828972,4.982822
01,CIS de Saint-Maurice-de-Remens,15 Rue de la Laiterie,01500,Saint-Maurice-de-Rémens,45.959286,5.277138
01,Centre d'incendie et de secours de Saint-Nizier-le-Bouchoux,290 Route de Saint Trivier,01560,Saint-Nizier-le-Bouchoux,46.460615,5.149378
01,Centre d'incendie et de secours de Saint-Paul-de-Varax,672 Route des Etangs,01240,Saint-Paul-de-Varax,46.092598,5.129069
01,Centre d'incendie et de secours de l'Albarine,6 RD n°34,01230,Saint-Rambert-en-Bugey,45.950645,5.461893
01,Centre d'incendie et de secours de Saint-Trivier-de-Courtes,47 Rue de la Republique,01560,Saint-Trivier-de-Courtes,46.459026,5.080826
01,Centre d'incendie et de secours de Saint-Trivier-sur-Moignans,350 route de Chatillon,01990,Saint-Trivier-sur-Moignans,46.075277,4.900584
01,Sapeurs-Pompiers Sainte-Julie,44 Route de la Chapelle,01150,Sainte-Julie,45.890712,5.276897
01,CPI Sault-Brénaz,27bis Grande Rue,01150,Sault-Brénaz,45.857337,5.405172
01,CPINI Sauverny,86 Route de l'Eglise,01220,Sauverny,46.312239,6.117626
01,Sapeurs Pompiers,58 Impasse des Pompiers,01480,Savigneux,46.000267,4.845942
01,CPI Ségny,400 Route Blanche,01170,Ségny,46.297863,6.071211
01,CPI Sergy,428 Rue des Prêles,01630,Sergy,46.250358,5.995259
01,Centre d'incendie et de secours de Seyssel,176 Rue de Cabaret,01420,Seyssel,45.954896,5.829298
01,CPI Souclin,3 Place de la Mairie,01150,Souclin,45.876561,5.416594
01,,340 Rue de la Mairie,01120,Thil,45.814046,5.021050
01,Centre d'incendie et de secours de Thoiry,155 Rue du Creux,01710,Thoiry,46.231151,5.985134
01,Centre d'incendie et de secours de Thoissey,12 Rue de l'Arquebuse,01140,Thoissey,46.169979,4.801731
01,Centre d'incendie et de secours de Tossiat,218 Route de Journans,01250,Tossiat,46.142128,5.320302
01,Centre d'incendie et de secours de Trévoux,89 Route de Lyon,01600,Trévoux,45.937162,4.787545
01,Centre d'incendie et de secours de Treffort-Cuisiat,152 Chemin du Monetay,01370,Val-Revermont,46.273618,5.358032
01,Centre d'incendie et de secours de Bellegarde-sur-Valserine,Allee Saint Christophe,01200,Valserhône,46.114249,5.808735
01,CPI Versonnex,21 Chemin des Buissons,01210,Versonnex,46.301790,6.101130
01,CPI Vesancy,27 Impasse Vie Quinat,01170,Vesancy,46.348633,6.089317
01,Centre d'incendie et de secours de Villars-les-Dombes,465 Rue de Dombes,01330,Villars-les-Dombes,46.000495,5.027490
01,Centre d'incendie et de secours du Suran,231 Route de Noblens,01250,Villereversure,46.173817,5.392777
01,Centre d'incendie et de secours de Vonnas,639 Route de Luponnas,01540,Vonnas,46.227398,4.984595
02,Centre d'incendie et de secours d'Anizy-le-Château,4 Route de l’Ocq,02320,Anizy-le-Grand,49.503956,3.439117
02,Centre d'incendie et de secours d'Aubenton,1 Impasse du Bois Millet,02500,Aubenton,49.838139,4.208536
02,Centre d'incendie et de secours de Barenton,14bis Rue de la Place,02000,Barenton-Bugny,49.634301,3.650457
02,Centre d'incendie et de secours de Beaurevoir,1 Rue de la Tour,02110,Beaurevoir,49.996452,3.307206
02,Centre d'incendie et de secours de Beaurieux,6 Rue de la Voie Menseuse,02160,Beaurieux,49.383777,3.738940
02,Centre d'incendie et de secours de Beautor,Rue de Liez,02800,Beautor,49.662638,3.343755
02,Centre d'incendie et de secours de Bohain,5 Rue Hennequin,02110,Bohain-en-Vermandois,49.983421,3.457699
02,Centre d'incendie et de secours de Braine,4 Route de Vieil-arcy,02220,Braine,49.343941,3.539618
02,Centre de secours principal de Château-Thierry,28 Route de Verdilly,02400,Brasles,49.053515,3.415765
02,Centre d'incendie et de secours de Bruyères,20 Rue du Tour de Ville,02860,Bruyères-et-Montbérault,49.525114,3.666212
02,Centre d'incendie et de secours de Buironfosse,4bis Rue Aristide Briand,02620,Buironfosse,49.965226,3.836621
02,Centre d'incendie et de secours de Charly,1 Route de Paris,02310,Charly-sur-Marne,48.975837,3.278516
02,Centre de secours principal de Chauny,4 Rue Alexandre Fourny,02300,Chauny,49.626799,3.221611
02,Centre d'incendie et de secours de Coincy,16 Route de Rocourt,02210,Coincy,49.159055,3.416061
02,Centre d'incendie et de secours de Coulonges,5 Rue de la Sabotterie,02130,Coulonges-Cohan,49.201485,3.636215
02,Centre d'incendie et de secours de Crécy-sur-Serre,1 rue de l'espérance,02270,Crécy-sur-Serre,49.697848,3.620919
02,Centre d'incendie et de secours de Crépy,49 Rue Emile Dewoitine,02870,Crépy,49.602260,3.520411
02,Centre d'incendie et de secours d'Esquéhéries,3bis Rue de Verdun,02170,Esquéhéries,49.986493,3.743642
02,Centre d'incendie et de secours d'Étréaupont,21 Rue de la Libération,02580,Étréaupont,49.902761,3.917094
02,Centre d'incendie et de secours d'Étreux,695 Rue du Bourbonnais,02510,Étreux,49.984264,3.654289
02,Centre d'incendie et de secours de Fère-en-Tardenois,Pres l'Abattoir,02130,Fère-en-Tardenois,49.201537,3.509103
02,Centre d'incendie et de secours de Fesmy,3 Place de l'Église,02450,Fesmy-le-Sart,50.041738,3.677311
02,Centre d'incendie et de secours de Flavy,70 Rue André Brûlé,02520,Flavy-le-Martel,49.713033,3.192300
02,Centre d'incendie et de secours de Fresnoy-le-Grand,260 Rue Levaufré,02230,Fresnoy-le-Grand,49.946983,3.412985
02,Centre d'incendie et de secours de Guise,144 Rue de l'Abreuvoir,02120,Guise,49.897942,3.627778
02,Centre d'incendie et de secours d'Hartennes,56 Grande-rue,02210,Hartennes-et-Taux,49.267994,3.355544
02,Centre de secours principal d'Hirson,23 Rue Antoine Sue,02500,Hirson,49.917974,4.083351
02,Centre d'incendie et de secours de La Bouteille,1bis Rue de Verdun,02140,La Bouteille,49.859923,3.977117
02,Centre d'incendie et de secours de La Capelle,3 Rue du 8 Mai 1945,02260,La Capelle,49.973677,3.915763
02,Centre d'incendie et de secours de La Fère,105 Rue du Millénaire,02800,La Fère,49.661566,3.376251
02,Centre d'incendie et de secours La Ferté-Milon,6 Rue des Genets,02460,La Ferté-Milon,49.186209,3.128076
02,Centre d'incendie et de secours de La Vallée-au-Blé,11 Rue de Verdun,02140,La Vallée-au-Blé,49.856711,3.789519
02,Centre de secours principal de Laon,73 Rue de la Hurée,02000,Laon,49.568123,3.640096
02,Centre d'incendie et de secours du Nouvion,59 Rue Théodore Blot,02170,Le Nouvion-en-Thiérache,50.017609,3.790194
02,Centre d'incendie et de secours de Liesse-Notre-Dame,3 Rue des Ecoles,02350,Liesse-Notre-Dame,49.607382,3.802977
02,Centre d'incendie et de secours de Marle,Caserne des Pompiers,02250,Marle,49.737299,3.765563
02,Centre d'incendie et de secours de Marly-Gomont,29ter Rue de la Poterie,02120,Marly-Gomont,49.904497,3.787767
02,Centre d'incendie et de secours de Val-d'Origny,Rue Jolie,02390,Mont-d'Origny,49.840916,3.495929
02,Centre d'incendie et de secours de Montcornet,66 Rue du Calvaire,02340,Montcornet,49.694302,4.023444
02,Centre d'incendie et de secours de Neuilly-Saint-Front,9 Rue de la Chantraine,02470,Neuilly-Saint-Front,49.167324,3.260355
02,Centre d'incendie et de secours d'Origny-en-Thiérache,8 Rue les Coutures,02550,Origny-en-Thiérache,49.887807,4.022280
02,Centre d'incendie et de secours de Plomion,Rue des Ecoles,02140,Plomion,49.808740,4.020232
02,Centre d'incendie et de secours de Ribemont,4 Rue Lesur,02240,Ribemont,49.795400,3.459981
02,Centre d'incendie et de secours de Rougeries,18 Rue des Champs,02140,Rougeries,49.804424,3.784651
02,Centre d'incendie et de secours de Rozoy-sur-Serre,61 Rue de la Cour des Prés,02360,Rozoy-sur-Serre,49.711260,4.126140
02,Centre d'incendie et de secours de Sains-Richaumont,10 Rue du Temple,02120,Sains-Richaumont,49.827004,3.717647
02,Centre d'incendie et de secours de Saint-Eugène,4 Rue du Cimetière,02330,Saint-Eugène,49.020060,3.530588
02,Centre d'incendie et de secours de Saint-Gobain,169 Manufacture des Glaces,02410,Saint-Gobain,49.598873,3.374830
02,Centre de secours principal de Saint-Quentin,79 Boulevard Jean Bouin,02100,Saint-Quentin,49.850656,3.307596
02,Centre d'incendie et de secours de Sissonne,5 Rue Guillaume Dupré,02150,Sissonne,49.567833,3.894879
02,Centre de secours principal de Soissons,43 Avenue de Coucy,02200,Soissons,49.390104,3.331100
02,Centre d'incendie et de secours de Tavaux,38bis Grande Rue,02250,Tavaux-et-Pontséricourt,49.729780,3.908688
02,Centre d'incendie et de secours de Tergnier,32 Rue Hoche,02700,Tergnier,49.650818,3.294042
02,Centre d'incendie et de secours de Trélou-sur-Marne,5 Rue de la Baudière,02850,Trélou-sur-Marne,49.077735,3.609548
02,Centre d'incendie et de secours de Vervins,10 Avenue Pierre Mendes France,02140,Vervins,49.827694,3.906573
02,Centre d'incendie et de secours de Vic-sur-Aisne,35 Rue de Rivière,02290,Vic-sur-Aisne,49.407741,3.122615
02,Centre d'incendie et de secours de Viels-Maisons,29 Route de Paris,02540,Viels-Maisons,48.898728,3.382336
02,Centre d'incendie et de secours de Villeneuve-sur-Aisne,5 Route de Juvincourt,02190,Villeneuve-sur-Aisne,49.435232,3.951192
02,Centre d'incendie et de secours de Villers-Cotterêts,22 Rue Nino Mascitti,02600,Villers-Cotterêts,49.259935,3.081234
02,Centre d'incendie et de secours de Villers-Saint-Christophe,5 Rue de l'Eglise,02590,Villers-Saint-Christophe,49.779221,3.093158
02,Centre d'incendie et de secours de Watigny,23 Rue Raymond Elise,02830,Watigny,49.904440,4.192996
03,Centre d'incendie et de secours d'Ainay-le-Château,25 Les Reux-Route de Moulins,03360,Ainay-le-Château,46.704513,2.695605
03,,1 Rue du 19 Mars 1962,03120,Arfeuilles,46.158963,3.732883
03,,5 Rue de l'Engièvre,03230,Beaulon,46.602286,3.676890
03,Sapeurs Pompiers,7 Rue Verte,03330,Bellenaves,46.201652,3.083868
03,Centre d'incendie et de secours de Bellerive-sur-Allier,1 Rue Jean Mace,03700,Bellerive-sur-Allier,46.115420,3.406066
03,Sapeurs pompiers,9 Route de Lyon,03340,Bessay-sur-Allier,46.437765,3.362000
03,Sapeurs Pompiers de Besson,6 Rue de Bel Air,03210,Besson,46.471111,3.262799
03,Sapeurs Pompiers de Bourbon l'Archambault,24bis Avenue Emile Guillaumin,03160,Bourbon-l'Archambault,46.582735,3.063579
03,Centre d'incendie et de secours de Broût-Vernet,3 Rue de la Caserne,03110,Broût-Vernet,46.191056,3.265120
03,Centre d'incendie et de secours de Buxières-les-Mines,1 Impasse Gabriel Péri,03440,Buxières-les-Mines,46.469115,2.963303
03,Centre d'incendie et de secours de Cérilly,25 Avenue Jean Jaurès,03350,Cérilly,46.616017,2.822422
03,Sapeurs Pompiers,23 Avenue du Stade,03140,Chantelle,46.232549,3.149372
03,Centre d'incendie et de secours de Châtel-de-Neuvre,1 Place de la Mairie,03500,Châtel-de-Neuvre,46.405911,3.311710
03,,16 Rue Berthet du Plavéret,03600,Commentry,46.286960,2.754742
03,Centre d'incendie et de secours de Cosne-d'Allier,7 Rue du Marché,03430,Cosne-d'Allier,46.474290,2.831102
03,Centre d'incendie et de secours de Couleuvre,4 Rue Jules Ferry,03320,Couleuvre,46.672238,2.908109
03,Centre de secours principal de Vichy,4 Rue du Commandant Aubrey,03300,Creuzier-le-Vieux,46.162736,3.414449
03,Centre d'incendie et de secours,25bis Impasse de la Gare,03290,Diou,46.530692,3.749537
03,Centre de secours de Dompierre-sur-Besbre,Place des 3 Platanes,03290,Dompierre-sur-Besbre,46.518704,3.684213
03,Centre d'incendie et de secours de Doyet,1 Chemin des Clous,03170,Doyet,46.335703,2.792544
03,,28 Rue du Parc,03450,Ébreuil,46.116940,3.091110
03,,18 ZA de Chamboirat,03450,Ébreuil,46.113001,3.100629
03,,22 Route de Vozelle,03110,Espinasse-Vozelle,46.127217,3.328491
03,,14 Clos de la Sabliere,03190,Hérisson,46.510116,2.704611
03,Centre d'incendie et de secours d'Huriel,3 Rue du Moulin de Lyon,03380,Huriel,46.373324,2.470841
03,,21 Rue de la Bertranne,03220,Jaligny-sur-Besbre,46.378342,3.596573
03,,8 Rue du Souvenir Francais,03120,Lapalisse,46.250759,3.634691
03,Centre de secours de Laprugne,46 Route de la Loge des Gardes,03250,Laprugne,45.986385,3.745973
03,Caserne de pompiers,1 Rue Georges Gallay,03130,Le Donjon,46.349464,3.794034
03,Centre d'incendie et de secours du Mayet-de-Montagne,3 Rue de l'Industrie,03250,Le Mayet-de-Montagne,46.065342,3.661190
03,Caserne Pompier Le Montet,41 Route Départementale 945,03240,Le Montet,46.406939,3.052273
03,Centre d'incendie et de secours du Theil,30 Route de Voussac,03240,Le Theil,46.353431,3.132219
03,Sapeurs Pompiers de Le veurdre,44 Rue Tour des Murs,03320,Le Veurdre,46.755184,3.038937
03,Centre d'incendie et de secours de Lurcy-Lévis,12 Route de Pouzy,03320,Lurcy-Lévis,46.724548,2.948165
03,Centre d'incendie et de secours de Marcillat-en-Combraille,5 Rue des Chaumes,03420,Marcillat-en-Combraille,46.161738,2.634663
03,Centre de secours principal de Montluçon,11 Place du 11 Novembre,03100,Montluçon,46.344875,2.592037
03,Centre de secours Montmarault,1 Rue du Cimetière,03390,Montmarault,46.318934,2.959869
03,Centre de secours principal de Moulins,56 Boulevard Ledru Rollin,03000,Moulins,46.561801,3.332562
03,Centre d'incendie et de secours de Néris-les-Bains,32 Route de Clermont,03310,Néris-les-Bains,46.279918,2.673279
03,Centre d'incendie et de secours de Neuilly-le-Réal,2bis Place du Champ de Foire,03340,Neuilly-le-Réal,46.462877,3.432922
03,C.S. Noyant,33 Rue de la Mine,03210,Noyant-d'Allier,46.482437,3.128845
03,,Rue de la Chaume,03500,Paray-sous-Briailles,46.290784,3.365754
03,Centre de secours Saint-Bonnet-Tronçais,3 Rue de l’Etang,03360,Saint-Bonnet-Tronçais,46.657827,2.692590
03,,24 Rue de l'Eglise,03340,Saint-Gérand-de-Vaux,46.379502,3.394926
03,,3 Route de Montaigu,03150,Saint-Gérand-le-Puy,46.260912,3.509797
03,Centre d'incendie et de secours de Saint-Germain-des-Fossés,20b Rue Teinturière,03260,Saint-Germain-des-Fossés,46.211261,3.437162
03,Centre d'incendie et de secours de Saint-Pourçain-sur-Sioule,4 Rue de la Moutte,03500,Saint-Pourçain-sur-Sioule,46.309182,3.292887
03,Centre d'incendie et de secours de Saint-Rémy-en-Rollat,2 Rue des Augerolles,03110,Saint-Rémy-en-Rollat,46.185204,3.391770
03,,1 Rue de la Verrerie,03270,Saint-Yorre,46.061728,3.462722
03,Centre d'incendie et de secours de Souvigny,route de Moulins,03210,Souvigny,46.535124,3.197087
03,Centre d'incendie et de secours de Trévol,11 Route de Munet,03460,Trévol,46.630318,3.307508
03,C.S. Trézelles,Voie du Tacot,03220,Trézelles,46.330007,3.591456
03,Centre d'incendie et de secours d'Urçay,2 Chemin de Tizais,03360,Urçay,46.623410,2.589277
03,Centre d'incendie et de secours de Vallon-en-Sully,3 Route de Nassigny,03190,Vallon-en-Sully,46.534932,2.607865
03,,104 Avenue de Chazeuil,03150,Varennes-sur-Allier,46.316319,3.396658
03,,1 Rue des Fosses,03430,Villefranche-d'Allier,46.396590,2.858567
03,Sapeurs Pompiers de Villeneuve,9 Rue de la Bergerie,03460,Villeneuve-sur-Allier,46.663948,3.249072
03,Centre d'incendie et de secours d'Ygrande,9 Route de Bourbon,03160,Ygrande,46.553990,2.950668
04,Poste avancé de La Foux d’Allos,1436 Route de Barcelonnette,04260,Allos,44.294027,6.569812
04,Centre d'incendie et de secours d'Allos,476 Route des Charrières,04260,Allos,44.248267,6.625057
04,,1436 Route de Barcelonnette,04260,Allos,44.294044,6.569809
04,Centre d'incendie et de secours d'Annot,58 Impasse de la Lainerie,04240,Annot,43.967029,6.665341
04,Centre d'incendie et de secours de Banon,99 Chemin du Puy,04150,Banon,44.028244,5.634586
04,Centre d'incendie et de secours de Barcelonnette,26 Place du 11e BCA,04400,Barcelonnette,44.387695,6.640774
04,Centre d'incendie et de secours de Barrême,12 Digue des Condamines,04330,Barrême,43.952004,6.369440
04,Centre d'incendie et de secours de Bras d’Asse,1 Chemin du Clausson,04270,Bras-d'Asse,43.919155,6.133645
04,Centre d'incendie et de secours de Castellane,6 Chemin du Roc,04120,Castellane,43.848170,6.512166
04,Centre d'incendie et de secours de Céreste,42 Chemin_de_la_gare,04280,Céreste-en-Luberon,43.857897,5.599028
04,Centre d'incendie et de secours de Château-Arnoux-Saint-Auban,46 Chemin de Bellevue,04160,Château-Arnoux-Saint-Auban,44.087065,6.008482
04,Centre d'incendie et de secours de Colmars-les-Alpes,84 Route de la Lance,04370,Colmars,44.178672,6.625895
04,Centre d'incendie et de secours de Digne-les-Bains,95 Avenue Henri Jaubert,04000,Digne-les-Bains,44.083340,6.218656
04,,1 Rue Sylvain Richard,04000,Digne-les-Bains,44.083888,6.217902
04,Centre d'incendie et de secours d'Entrevaux,287 Route de Bay,04320,Entrevaux,43.948442,6.809481
04,Centre d'incendie et de secours d'Esparron-de-Verdon,294 Rue des Fontaines,04800,Esparron-de-Verdon,43.741542,5.973916
04,Centre d'incendie et de secours de Forcalquier,26 Traverse de Beaudine,04300,Forcalquier,43.948612,5.768952
04,Centre d'incendie et de secours de Gréoux-les-Bains,80 Rue Sous la Combe,04800,Gréoux-les-Bains,43.763243,5.890282
04,Centre d'incendie et de secours de la Haute Ubaye,13 Rue des Tardets,04530,La Condamine-Châtelard,44.456453,6.746320
04,Centre d'incendie et de secours de La Javie,4 Impasse de la Cluse,04420,La Javie,44.176775,6.353766
04,Centre d'incendie et de secours de La Motte-du-Caire,158 Chemin du Clos,04250,La Motte-du-Caire,44.346191,6.031473
04,Centre d'incendie et de secours de La Palud-sur-Verdon,200 Route des Crêtes,04120,La Palud-sur-Verdon,43.779368,6.356807
04,Centre d'incendie et secours des Mées,586 Avenue de Provence,04190,Les Mées,44.026454,5.969187
04,Centre d'incendie et de secours de Malijai,9 Rue Noélie Castel,04350,Malijai,44.044332,6.033405
04,Centre d'incendie et de secours de Manosque,251 Rue Pierre Garcin,04100,Manosque,43.813505,5.782922
04,Centre d'incendie et de secours de Mézel,36 Impasse des Muriers,04270,Mézel,43.995650,6.197758
04,Centre d'incendie et de secours de Moustiers-Sainte-Marie,462 Chemin de la Maladrerie,04360,Moustiers-Sainte-Marie,43.843639,6.217142
04,Centre d'incendie et de secours de Noyers-sur-Jabron,255 Chemin des Berauds,04200,Noyers-sur-Jabron,44.171230,5.839614
04,Centre d'incendie et de secours d'Oraison,149 Rue du 11 Novembre 1918,04700,Oraison,43.920293,5.920742
04,Centre d'incendie et de secours de Peyruis,282 Route du Mardaric,04310,Peyruis,44.042410,5.956481
04,Centre d'incendie et de secours de Puimoisson,20 Chemin des Hautes Condamines,04410,Puimoisson,43.864727,6.125712
04,Centre d'incendie et de secours de Quinson,660 Rue des Vignes,04500,Quinson,43.703611,6.041963
04,Centre d'incendie et de secours de Reillanne,54 Chemin du Paty,04110,Reillanne,43.881811,5.659236
04,Centre d'incendie et de secours de Riez,430 Route de Quinson,04500,Riez,43.812703,6.097358
04,Centre d'incendie et de secours de Saint-André-les-Alpes,30 Zone Artisanale,04170,Saint-André-les-Alpes,43.960635,6.507611
04,Centre d'incendie et de secours de Saint-Étienne-les-Orgues,57 Route de Fontienne,04230,Saint-Étienne-les-Orgues,44.042195,5.781820
04,Centre d'incendie et de secours de Saint-Martin-de-Brômes,15 Chemin de Pauron,04800,Saint-Martin-de-Brômes,43.769369,5.939246
04,Centre d'incendie et de secours de Sainte-Tulle,521 Avenue Gracchus BABEUF,04220,Sainte-Tulle,43.791038,5.770499
04,Centre d'incendie et de secours de Seyne-les-Alpes,72 Rue du Marcheyer,04140,Seyne,44.349501,6.357181
04,Centre d'incendie et de secours de Sisteron,90 Rue Raoul Bouchet,04200,Sisteron,44.196723,5.940711
04,Centre d'incendie et de secours de Thoard,Route de la Chaumasse,04380,Thoard,44.153016,6.149777
04,Centre d’incendie et de secours de La Bréole - Saint Vincent,2 Zone d'Activités Les terrasses,04340,Ubaye-Serre-Ponçon,44.447293,6.337332
04,Poste avancé d'Uvernet - Pra-Loup,6994 Route de Pra Loup,04400,Uvernet-Fours,44.367480,6.606233
04,Centre d'incendie et de secours de Valensole,512 Chemin de Maragonelle,04210,Valensole,43.842660,5.978209
04,Centre d'incendie et de secours de Volx,204 Rue Font de Lagier - Zone d’Activités,04130,Volx,43.873946,5.848693
05,Centre d'incendie et de de secours du Queyras Haut Guil,22 Chemin de Saint Laurent,05460,Abriès-Ristolas,44.792993,6.922905
05,Centre d'incendie et de secours de Queyras-Aiguilles,100 Rue de la Caserne,05470,Aiguilles,44.783306,6.871425
05,Centre d'incendie et de secours de Queyras-Arvieux,30 Impasse du Douany,05350,Arvieux,44.767334,6.738933
05,Centre d'incendie et de secours d'Aspres-sur-Buëch,18 Chemin du Vieux Moulin,05140,Aspres-sur-Buëch,44.521653,5.755057
05,Centre de secours principal de Briançon,7 Rue Joseph Sylvestre,05100,Briançon,44.887751,6.633025
05,Centre d'incendie et de secours de Ceillac,433 Rue du Pic d'Assan,05600,Ceillac,44.670847,6.777534
05,Centre d'incendie et de secours de Châteauroux,1 Place de la Mairie,05380,Châteauroux-les-Alpes,44.613456,6.521346
05,Centre d’incendie et de secours de Chorges,70 Rue du Champ de Foire,05230,Chorges,44.545422,6.280058
05,Centre d'incendie et de secours de Crévoux,67 Route de Pra Vesqua,05200,Crévoux,44.545976,6.605390
05,Centre d'incendie et de secours de Dévoluy,91 Route des Stations,05250,Dévoluy,44.688286,5.945530
05,Centre d'incendie et de secours d'Embrun,Impasse du Parpaillon,05200,Embrun,44.570508,6.508057
05,Centre d’incendie et de secours de Serre-Ponçon,24 Rue des Pompiers,05190,Espinasses,44.466434,6.225033
05,Centre de secours principal de Gap,8 Chemin de Patac,05000,Gap,44.537923,6.065904
05,Centre d'incendie et de secours de Guillestre,512 Rue du Guil,05600,Guillestre,44.659997,6.623438
05,Centre d'incendie et de secours d'Argentière-la-Bessée,61 Rue de la Série E,05120,L'Argentière-la-Bessée,44.787013,6.558621
05,Centre d'incendie et de secours de La Bâtie-Neuve,78 Rue de la Lauzière,05230,La Bâtie-Neuve,44.563023,6.208204
05,Centre d'incendie et de secours de La Grave,Le Coin Golefre,05320,La Grave,45.047599,6.314218
05,Centre d'incendie et de secours de Gandière,42 Rue de Céüze,05110,La Saulce,44.441105,6.024607
05,Centre d'incendie et de secours de Laragne,Chemin des Correards,05300,Laragne-Montéglin,44.311380,5.827865
05,Centre d'incendie et de secours de Serre-Chevalier,108 Route de Grenoble,05220,Le Monêtier-les-Bains,44.967993,6.531011
05,Centre d'incendie et de secours des Orres,4 Rue du Cadran Solaire,05200,Les Orres,44.504396,6.554837
05,Centre d'incendie et de de secours de Molines-en-Queyras,3245 Route de Saint Véran,05350,Molines-en-Queyras,44.716083,6.848014
05,Centre d'incendie et de secours de Montgenèvre,133 Rue du Suffin,05100,Montgenèvre,44.932049,6.722609
05,Centre d'incendie et de secours de Névache,30 Parking de la Gravière,05100,Névache,45.019066,6.606841
05,Centre d'incendie et de secours d'Orcières,70 Impasse des Chardousses,05170,Orcières,44.684273,6.326480
05,Centre d'incendie et de secours de Puy-Saint-Vincent,36 Route des Vigneaux,05290,Puy-Saint-Vincent,44.827728,6.495578
05,Centre d'incendie et de secours de Risoul,326 Rue des Ecrins,05600,Risoul,44.624381,6.636463
05,Centre d'incendie et de secours de Rosans,38 Route du Suquet,05150,Rosans,44.393487,5.470626
05,Centre d'incendie et de secours de Saint-André-d'Embrun,43 Rue du Clocher,05200,Saint-André-d'Embrun,44.586440,6.533811
05,Centre d'incendie et de secours de Champsaur,1A Avenue Prémongil,05500,Saint-Bonnet-en-Champsaur,44.679126,6.082675
05,Centre d'incendie et de secours de Valgaudemar,294 Rue Sous le Fort,05800,Saint-Firmin,44.776413,6.015419
05,Centre d'incendie et de secours de Saint-Jean-Saint-Nicolas,6 Impasse des Gabelous,05260,Saint-Jean-Saint-Nicolas,44.665272,6.222616
05,Centre d'incendie et de secours de Savines-le-Lac,27 Avenue de la Combe d'Or,05160,Savines-le-Lac,44.526821,6.410546
05,Centre d'incendie et de secours de Serres,415 Route de Mereuil,05700,Serres,44.422417,5.710731
05,Centre d'incendie et de secours de Val-des-Prés,44 Routa Dou Pra,05100,Val-des-Prés,44.950553,6.677307
05,Centre d’incendie et de secours des Écrins,32 Route de la Croix Rouge,05340,Vallouise-Pelvoux,44.850662,6.491788
05,Centre d'incendie et de secours de Vars,228 Cours François Bénard,05560,Vars,44.592909,6.692406
05,Centre d'incendie et de secours de Veynes,21 Chemin de la Vieille Digue,05400,Veynes,44.528319,5.824198
06,Centre d'incendie et de secours d'Andon,159 Allée Léon Funel,06750,Andon,43.773550,6.786743
06,Centre de secours principal d'Antibes,400 Avenue Jules Grec,06600,Antibes,43.591102,7.117382
06,Centre d'incendie et de secours d'Auribeau-sur-Siagne,202 Route de Grasse,06810,Auribeau-sur-Siagne,43.610029,6.916329
06,Centre d'incendie et de secours de Bendejun,Avenue Comte Xavier Saissi,06390,Bendejun,43.834927,7.293996
06,Centre d'incendie et de secours de Berre-les-Alpes,17 Avenue Alfred Borriglione,06390,Berre-les-Alpes,43.830925,7.327558
06,Centre d'incendie et de secours de Beuil,15 Route de la Couillole,06470,Beuil,44.097069,6.986635
06,Centre d'incendie et de secours de Biot,575 Chemin des Combes,06410,Biot,43.628464,7.100484
06,Force 06 - Base de Breil-sur-Roya,241 Rue des Metiers,06540,Breil-sur-Roya,43.941641,7.515059
06,Centre d'incendie et de secours de Breil-sur-Roya,233 Rue des Metiers,06540,Breil-sur-Roya,43.942104,7.515264
06,Centre d'incendie et de secours de Cabris,23 Chemin de Stramousse,06530,Cabris,43.657439,6.879434
06,Centre de secours principal de Cagnes-sur-Mer,40 Chemin de Saint-Jean,06800,Cagnes-sur-Mer,43.670398,7.126359
06,Centre de secours principal Cannes-Pastour,9 Rue Louis Pastour,06400,Cannes,43.553247,7.010201
06,Centre de secours principal Cannes-La Bocca,28 Avenue Pierre de Coubertin,06150,Cannes,43.555244,6.966780
06,Centre d'incendie et de secours de Carros,1726 Route de la ZA de la Grave,06510,Carros,43.780144,7.210487
06,Centre d'incendie et de secours de Castagniers,4144 Route de Castagniers,06670,Castagniers,43.789301,7.233923
06,Centre de secours principal de Menton,3 Allée Canta Merlou,06500,Castellar,43.806705,7.488004
06,Centre d'incendie et de secours de Châteauneuf-Villevieille,336 Avenue de la Tour,06390,Châteauneuf-Villevieille,43.811267,7.295247
06,Centre d'incendie et de secours de Contes,150 Allée Christian Mangiapan,06390,Contes,43.804745,7.324289
06,Centre d'incendie et de secours de Coursegoules,142 Route de la Ferrage,06140,Coursegoules,43.793016,7.043315
06,Centre d'incendie et de secours d'Èze,581 Boulevard du Marechal Leclerc,06360,Èze,43.732984,7.356537
06,Centre d'incendie et de secours de Fontan,7 Chemin de Peve,06540,Fontan,44.002564,7.555756
06,Centre d'incendie et de secours de Gilette,92 Route de Roquesteron,06830,Gilette,43.853736,7.164136
06,Centre de secours principal de Grasse,24 Chemin des Poissonniers,06130,Grasse,43.653423,6.938501
06,Centre d'incendie et de secours de Guillaumes,1 Place General de Gaulle,06470,Guillaumes,44.088642,6.853534
06,Force 06 - Base de Guillaumes,10 Avenue de Saint Segal,06470,Guillaumes,44.082476,6.856777
06,Centre d'incendie et de secours d'Isola 2000,135 Rue de l'École,06420,Isola,44.189217,7.153481
06,Centre d'incendie et de secours d'Isola,260 Route du Lac,06420,Isola,44.185468,7.051190
06,Centre d'incendie et de secours de L'Escarene,52 Chemin du Castel,06440,L'Escarène,43.837919,7.354150
06,Centre d'incendie et de secours de La Brigue,2 Avenue de Provence,06430,La Brigue,44.063304,7.622626
06,Centre d'incendie et de secours de La Roquette-sur-Siagne,630 Chemin de la Commune,06550,La Roquette-sur-Siagne,43.580396,6.955929
06,Centre d'incendie et de secours de La Turbie,24 Cours Albert 1er,06320,La Turbie,43.745853,7.402381
06,Sapeurs-Pompiers de la Turbie,299d Route de Beausoleil,06320,La Turbie,43.749942,7.412113
06,Force 06 - Base de Lantosque,Route des Casernes,06450,Lantosque,43.972861,7.307479
06,Centre d'incendie et de secours de Lantosque,24 Rue de la Lantosquoise,06450,Lantosque,43.974737,7.311584
06,Centre d'incendie et de secours de Bar-sur-Loup,1 Avenue Amiral de Grasse,06620,Le Bar-sur-Loup,43.699650,6.988930
06,Centre d'incendie et de secours du Tignet,186 Voie de l’Ecole,06530,Le Tignet,43.630352,6.843376
06,Centre d'incendie et de secours de Levens,54 Chemin de la Cumba,06670,Levens,43.856411,7.224553
06,Centre d'incendie et de secours de Lucéram,1 Quartier Saint Gras,06440,Lucéram,43.880739,7.356035
06,Antenne de Premiers secours Forty,7bis Rue General Gallieni,06500,Menton,43.776180,7.505712
06,Force 06 - Base forestière de Mouans-Sartoux,955 Piste du Defends,06370,Mouans-Sartoux,43.612348,6.951747
06,Centre d'incendie et de secours de Mouans-Sartoux,152 Traverse de la Nartassière,06370,Mouans-Sartoux,43.614342,6.967589
06,Centre d'incendie et de secours de Mougins,781 Chemin de Campane,06250,Mougins,43.586630,6.998451
06,Centre de secours principal Nice-Magnan,6 Boulevard de la Madeleine,06000,Nice,43.692405,7.244876
06,Centre d'incendie et de secours Nice-Hansy,8 Rue Hancy,06000,Nice,43.704616,7.268320
06,Centre d'incendie et de secours de La Tour-Rouge,Quai de l'Ile de Beauté,06300,Nice,43.692991,7.289179
06,Centre d'incendie et de secours Nice-Nord,46 Boulevard Henri Sappia,06100,Nice,43.733245,7.249669
06,Centre d'incendie et de secours Nice-Saint Isidore,453 Avenue Sainte-Marguerite,06200,Nice,43.710049,7.196058
06,Centre de secours principal Nice-Bon Voyage,228bis Route de Turin,06300,Nice,43.727595,7.285547
06,Centre de secours principal Nice-Fodéré,27 Rue Fodéré,06300,Nice,43.699185,7.288734
06,Centre d'incendie et de secours de Pégomas,151 Avenue Fredéric Mistral,06580,Pégomas,43.593279,6.926605
06,Force 06 - Base de Peille,115 Route des Clues,06440,Peille,43.792035,7.376676
06,Centre d'incendie et de secours de Peille,87 Route des Clues,06440,Peille,43.791548,7.376434
06,Centre d'incendie et de secours de Péone-Valberg,6 Route de Rouya,06470,Péone,44.095765,6.936090
06,Centre d'incendie et de secours de Peymeinade,11 Boulevard Jean Giraud,06530,Peymeinade,43.644031,6.879028
06,Centre d'incendie et de secours de Puget-Théniers,585 Route du Col de Saint Raphaël,06260,Puget-Théniers,43.951514,6.900097
06,Centre d'incendie et de secours de Roquebillière,Escalier Rue du Plateau Carlon/Rue du Counigou,06450,Roquebillière,44.013035,7.306796
06,Centre d'incendie et de secours de Roquebrune-Cap-Martin,7a Avenue Francois de Monleon,06190,Roquebrune-Cap-Martin,43.762004,7.480269
06,Centre d'incendie et de secours de Roquefort-Les-Pins,62 Allée du Château de Mougins,06330,Roquefort-les-Pins,43.672400,7.028462
06,Centre d'incendie et de secours de Roquestéron,290 Route de Cuébris,06910,Roquestéron,43.876278,7.006610
06,Centre d'incendie et de secours de Saint-Auban,1 Chemin des Viviers,06850,Saint-Auban,43.844260,6.729958
06,Centre d'incendie et de secours de Saint-Cézaire-sur-Siagne,132 Chemin des Puits,06530,Saint-Cézaire-sur-Siagne,43.651258,6.797017
06,Centre d'incendie et de secours d'Auron,140 Route de Nabinas,06660,Saint-Étienne-de-Tinée,44.227602,6.928124
06,Centre d'incendie et de secours de Saint-Étienne-de-Tinée,177 Boulevard d'Auron,06660,Saint-Étienne-de-Tinée,44.255580,6.923989
06,Centre d'incendie et de secours de Saint-Jean-Cap-Ferrat,4 Chemin des Moulins,06230,Saint-Jean-Cap-Ferrat,43.701124,7.326976
06,Centre d'incendie et de secours de Saint-Laurent-du-Var,438 Route de la Baronne,06700,Saint-Laurent-du-Var,43.703069,7.179141
06,Centre d'incendie et de secours de Saint-Martin-du-Var,1 Place de la République,06670,Saint-Martin-du-Var,43.817470,7.189923
06,Centre d'incendie et de secours de Saint-Martin-Vésubie,3 Place de La Gare,06450,Saint-Martin-Vésubie,44.070530,7.254009
06,Centre d'incendie et et de secours de Saint-Sauveur-sur-Tinée,6 Avenue des Blavets,06420,Saint-Sauveur-sur-Tinée,44.082209,7.106779
06,Centre d'incendie et de secours de Saint-Vallier-de-Thiey,205 Chemin des Muscaris,06460,Saint-Vallier-de-Thiey,43.693813,6.858557
06,Force 06 - Base de Sospel,8 Avenue de la 1ere Dfl,06380,Sospel,43.880071,7.444529
06,Centre d'incendie et de secours de Sospel,13 Boulevard de Verdun,06380,Sospel,43.878751,7.452693
06,Centre d'incendie et de secours du Tunnel de Tende,8135 route du Col de Tende,06430,Tende,44.138912,7.570227
06,Centre d'incendie et de secours de Saint-Dalmas-de-Tende,71 Avenue Martyrs de la Résistance,06430,Tende,44.055278,7.579924
06,Force 06 - Base de Tende,quartier Fenale,06430,Tende,44.074202,7.597741
06,Centre d'incendie et de secours de Tende,117 Avenue du 16 Septembre 1947,06430,Tende,44.091425,7.591788
06,Théoule-sur-Mer,44 Avenue de Lérins,06590,Théoule-sur-Mer,43.507590,6.940236
06,Centre d'incendie et de secours de Tourette-Levens,19 Route de Châteauneuf-Villevieille,06690,Tourrette-Levens,43.799124,7.272611
06,Force 06 - Base forestière de La Roberte,Route de la Roberte,06560,Valbonne,43.623429,7.027992
06,Centre d'incendie et de secours de Valbonne Sophia,1900 Route des Cretes,06560,Valbonne,43.628534,7.044639
06,Centre d'incendie et de secours de Valdeblore,6207 route de La Colmiane,06420,Valdeblore,44.070232,7.167308
06,Centre d'incendie et de secours de Vallauris,43 Avenue de Cannes,06220,Vallauris,43.575390,7.049940
06,Centre d'incendie et de secours de Vence,276 Avenue Rhin et Danube,06140,Vence,43.723906,7.103433
06,Centre d'incendie et de secours de Villars-sur-Var,158 Avenue Bischoffsheim,06710,Villars-sur-Var,43.935660,7.095748
07,Centre d'incendie et de secours d'Alboussière,125 Place du Belvédère,07440,Alboussière,44.944609,4.732263
07,CIS Andance - Pompiers,7 Rue du Lieutenant-Colonel Meyrand,07340,Andance,45.238270,4.798877
07,CIS Ardoix,90a Rue de l'École Publique,07290,Ardoix,45.188659,4.737483
07,Centre de secours principal d'Aubenas,39 Rue de Tartary,07200,Aubenas,44.623359,4.397197
07,,20 Route du Cayres,07330,Barnas,44.667397,4.163856
07,,1 Place de la Liberte,07340,Bogy,45.283095,4.759898
07,Centre de secours Alexandre Chazallet,25 Grand Rue,07450,Burzet,44.739491,4.245756
07,,415 rue de la Mairie,07240,Chalencon,44.880065,4.577191
07,,5 Place des Pompiers,07470,Coucouron,44.801253,3.971684
07,CIS Cruas,500 Avenue de Provence,07350,Cruas,44.660506,4.774085
07,Centre de secours principal Annonay Rhône Agglo,4 Rue de Vidalon,07430,Davézieux,45.254319,4.682396
07,,35 chemin du colombier,07570,Désaignes,44.994084,4.515466
07,,Rue des Pompiers,07370,Eclassan,45.159186,4.761279
07,,120 Rue des Servolles,07270,Empurany,45.025260,4.607560
07,,570 Route de l'Echelette,07380,Fabras,44.652511,4.268690
07,CIS La Voulte,260 Avenue Marie Curie,07800,La Voulte-sur-Rhône,44.804700,4.788857
07,Centre d'incendie et de secours de Labégude,5 Lotissement du Pradou,07200,Labégude,44.647825,4.367729
07,Centre d'incendie et de secours Sud Cévennes,122 Chemin du Rieublanquet,07230,Lablachère,44.458504,4.217074
07,,25 Chemin de la Serre,07200,Lachapelle-sous-Aubenas,44.562185,4.357982
07,,80 Chemin des Pompiers,07380,Lalevade-d'Ardèche,44.646036,4.321830
07,CIS Lalouvesc,19b Rue des Cévennes,07520,Lalouvesc,45.119778,4.534655
07,Centre d'incendie et de secours,7 Rue Henri Roche,07270,Lamastre,44.985554,4.575744
07,,Impasse de la Côte,07110,Largentière,44.547011,4.296469
07,Centre d'incendie et de secours,9a Allée Andre Monteil,07110,Largentière,44.537560,4.294574
07,,15 Route de la Serre,07170,Lavilledieu,44.566867,4.464520
07,,36 rue de la cistre,07630,Le Béage,44.845946,4.123008
07,,13bis Rue Louis Vincent,07160,Le Cheylard,44.908715,4.426457
07,Centre d'incendie et de secours du Pouzin,4bis impasse bédouin,07250,Le Pouzin,44.751290,4.748524
07,Centre d'incendie et de secours du Teil,2 Avenue Général de Gaulle,07400,Le Teil,44.543907,4.686573
07,,200 Rue de la Gare,07360,Les Ollières-sur-Eyrieux,44.805473,4.619625
07,,248 Route de Païolive,07140,Les Vans,44.403113,4.135822
07,Centre d'incendie et de secours de Lussas,42 Route de l’Echelette,07170,Lussas,44.612322,4.470647
07,,5 Place des Galets,07300,Mauves,45.039099,4.830787
07,,41 Rue de la Pourceille,07560,Montpezat-sous-Bauzon,44.711456,4.209593
07,,55 Rue de l’Eglise,07150,Orgnac-l'Aven,44.306302,4.433497
07,CIS Préaux,20 Route de Laffarre,07290,Préaux,45.141666,4.663410
07,Service Départemental d'Incendie et de Secours de l'Ardèche,496 Chemin de Saint Claire,07000,Privas,44.718243,4.595982
07,Services techniques et bâtiments - Ateliers Mécaniques,1587 Boulevard du Vivarais,07000,Privas,44.717550,4.611919
07,Centre d'incendie et de secours de Privas,51 Chemin de la Palud,07000,Privas,44.725636,4.613771
07,,51 Chemin de la Palud,07000,Privas,44.725788,4.613539
07,,95 Route d'Annonay,07290,Quintenas,45.191828,4.685889
07,,105 place de la mairie,07320,Rochepaule,45.076518,4.456197
07,Centre d'incendie et de secours de Roiffieux,Place de la Mairie,07100,Roiffieux,45.227973,4.658656
07,,29 Route de Pradons,07120,Ruoms,44.462575,4.344031
07,Caserne Pompier,10 Chemin de Chavagnac,07320,Saint-Agrève,45.011330,4.387152
07,CIS Saint-Alban d'Ay,2 Place Saint Exupery,07790,Saint-Alban-d'Ay,45.188522,4.637395
07,,101 Route de lapalisse,07510,Saint-Cirgues-en-Montagne,44.755283,4.095499
07,Centre d'Incendie et de Secours de Saint-Cirgues-en-Montagne,1320 Route du Tunnel,07510,Saint-Cirgues-en-Montagne,44.748071,4.109784
07,,494 Route de Luc,07590,Saint-Étienne-de-Lugdarès,44.651469,3.956184
07,Centre d'incendie et de secours de Saint-Félicien,275 Chemin de Jomard,07410,Saint-Félicien,45.082509,4.629621
07,,215 Chemin du Crouzet,07580,Saint-Jean-le-Centenier,44.589929,4.540398
07,Centre d'incendie et de secours de Sud Vallée du Rhône d'Ardèche,40 Chemin de Pontbrillant,07700,Saint-Marcel-d'Ardèche,44.331658,4.639669
07,,Impasse du Secours,07100,Saint-Marcel-lès-Annonay,45.285105,4.626540
07,,25 Allée du Gua,07310,Saint-Martin-de-Valamas,44.950038,4.365389
07,Centre d'incendie et de secours de Saint-Péray,99bis Avenue de Gross Umstadt,07130,Saint-Péray,44.946065,4.853718
07,,837 rue du moulinage,07190,Saint-Pierreville,44.818333,4.495604
07,,24 Chemin du Deves,07700,Saint-Remèze,44.392020,4.505758
07,Centre d'incendie et de secours,15 Rue du Château d'Ay,07290,Saint-Romain-d'Ay,45.163515,4.662668
07,,45 Rue des Ecoles,07190,Saint-Sauveur-de-Montagut,44.819952,4.576416
07,,140a Route de Berger,07190,Saint-Sauveur-de-Montagut,44.815376,4.597526
07,,139 Route de la Croix de Moulin,07510,Sainte-Eulalie,44.810938,4.188305
07,CIS Sarras,1 Rue des Grillons,07370,Sarras,45.183603,4.800490
07,CIS Satilleu,15 Rue Roger Guyon,07290,Satillieu,45.154961,4.624049
07,,320 Avenue Helvetia,07340,Serrières,45.321498,4.760923
07,Centre d'incendie et de secours,1 Rue de Paradis,07330,Thueyts,44.676932,4.225319
07,CIS Tournon,7 Avenue de Nîmes,07300,Tournon-sur-Rhône,45.063519,4.842067
07,,10 Rue du Villard,07110,Valgorge,44.588683,4.123391
07,Caserne pompiers,31 Rue du Moulin à vent,07150,Vallon-Pont-d'Arc,44.403054,4.384249
07,Caserne de Pompiers de Vals-les-Bains,23 Quai Lieutenant Colonel Tourre,07600,Vals-les-Bains,44.667577,4.362815
07,,231 Rue des Maronniers,07690,Vanosc,45.226425,4.551977
07,,239 Rue du Centre,07430,Vernosc-lès-Annonay,45.218693,4.714428
07,Centre de secours et d'incendie,Chemin du Bourget,07240,Vernoux-en-Vivarais,44.894242,4.641166
07,,220 Rue de Beaufort,07170,Villeneuve-de-Berg,44.555715,4.494960
07,Ancienne caserne,11 rue du moulin,07690,Villevocance,45.223823,4.590440
07,centre d’incendie et de secours du Val de Cance,15 route du Puy,07690,Villevocance,45.223043,4.586755
07,,5 Avenue de la Gare,07220,Viviers,44.478468,4.689846
07,,130 Route de Pouillas,07690,Vocance,45.202605,4.552175
08,Centre Avancé d'Amagne,1 Place de la Mairie,08300,Amagne,49.516839,4.505263
08,Centre d'Incendie et de Secours d'Asfeld,83 Rue Chantereine,08190,Asfeld,49.464997,4.112079
08,Centre d'incendie et de secours d'Attigny,8 Chemin de Vaux Champagne,08130,Attigny,49.471452,4.576149
08,Centre d'incendie et de secours d'Auvillers-les-Forges,37b Route Nationale,08260,Auvillers-les-Forges,49.872484,4.369295
08,Centre d'incendie et de secours du Chesne,390 Rue du Zouave Coco,08390,Bairon et ses environs,49.512677,4.768443
08,Centre d'incendie et de secours de Bogny sur Meuse,66 Rue Etienne Dolet,08120,Bogny-sur-Meuse,49.839653,4.771617
08,Centre Avancé de Brévilly,9ter Rue de l’Eglise,08140,Brévilly,49.662998,5.076458
08,,1 Rue du Presbytere,08240,Brieulles-sur-Bar,49.477327,4.855874
08,Centre d'incendie et de secours de Buzancy,2 Impasse de la Brasserie,08240,Buzancy,49.425427,4.954140
08,Centre d'incendie et de secours de Carignan,33bis Avenue de Blagny,08110,Carignan,49.628236,5.171485
08,Centre d'incendie et de secours de Charleville-Mézières,27 Rue de la Vieille Meuse,08000,Charleville-Mézières,49.756120,4.709400
08,Centre d'incendie et de secours de Château-Porcien,24 Rue du Champ de Foire,08360,Château-Porcien,49.528181,4.248539
08,Centre d'incendie et de secours de Chaumont-Porcien,28 Place de la Mairie,08220,Chaumont-Porcien,49.649083,4.246998
08,Centre Avancé de Gespunsart,Rue de la Glau,08700,Gespunsart,49.821670,4.826599
08,Centre d'Incendie et de Secours de Givet,30 Rue Contamine,08600,Givet,50.141051,4.819623
08,Centre d'incendie et de secours de Grandpré,32 Rue de Montflix,08250,Grandpré,49.340008,4.868038
08,Centre d'incendie et de secours de Grandpré,5 Ruelle de l'Orme,08250,Grandpré,49.341339,4.866283
08,Centre d'Incendie et de Secours de Haybes,5 Espace Mitterrand,08170,Haybes,50.006481,4.700561
08,Centre d'incendie et de secours de Juniville,17 Allee Andre Barrois,08310,Juniville,49.401159,4.368956
08,Centre avancé du Châtelet sur Retourne,Rue Bailla,08300,Le Châtelet-sur-Retourne,49.417271,4.276008
08,Centre d'incendie et de secours de Liart,2 Rue Derriere les Champs,08290,Liart,49.768743,4.343250
08,Centre d'incendie et de secours de Machault,8 Rue de l’Orme,08310,Machault,49.356332,4.500316
08,Centre d'incendie et de secours de Margut,Rue de la Prairie,08370,Margut,49.586912,5.260451
08,Centre d'Incendie et de Secours de Monthermé,42 Rue Louis Bleriot,08800,Monthermé,49.883440,4.743016
08,Centre d'incendie et de secours de Monthois-Challerange,32 Le Moulin de Pierre,08400,Monthois,49.314764,4.715025
08,Centre d'incendie et de secours de Mouzon,1 Rue Moulin Lavigne,08210,Mouzon,49.606646,5.076889
08,Centre d'incendie et de secours de Nouvion-sur-Meuse,4 Rue Escadrille Normandie Niemen,08160,Nouvion-sur-Meuse,49.702874,4.798899
08,Centre d'Incendie et de Secours de Nouzonville,1 Place de Strasbourg,08700,Nouzonville,49.815572,4.741923
08,Centre d'incendie et de secours de Novion-Porcien,8 Impasse du Musee,08270,Novion-Porcien,49.599772,4.419790
08,Centre d'incendie et de secours de Poix-Terron,110bis Grande Rue,08430,Poix-Terron,49.647537,4.639666
08,Centre d'incendie et de secours de Raucourt-et-Flaba,21 Rue de la Bastille,08450,Raucourt-et-Flaba,49.606132,4.956953
08,Centre d'incendie et de secours de Renwez,6 Chemin de la Bergerie,08150,Renwez,49.833613,4.607527
08,Centre d'incendie et de secours de Rethel,5 Rue Pierre Latecoere,08300,Rethel,49.521022,4.366251
08,Centre d'incendie et de secours de Revin,166 Avenue Albert Camus,08500,Revin,49.934623,4.644250
08,Centre d'incendie et de secours de Rocroi,7 Rue des Jardins Laramé,08230,Rocroi,49.921115,4.516349
08,,2 Rue du Grand Fossé,08270,Saulces-Monclin,49.577278,4.493497
08,Centre d'Incendie et de Secours de Sedan,8 Rue Ancienne Porte de Balan,08200,Sedan,49.697037,4.952008
08,Centre Avancé de Sévigny-Waleppe,Chemin de Reims,08220,Sévigny-Waleppe,49.601144,4.077757
08,Centre d'incendie et de secours de Signy-l'Abbaye,5s rue de Rocroi,08460,Signy-l'Abbaye,49.702634,4.421275
08,Centre d'incendie et de secours de Signy-le-Petit,4 Rue des Marais,08380,Signy-le-Petit,49.905437,4.277705
08,Poste avancé de Thin-le-Moutier,2 Rue de la Place,08460,Thin-le-Moutier,49.718896,4.502466
08,Centre Avancé de Vendresse,8 Rue de la Mairie,08160,Vendresse,49.604361,4.795040
08,Centre d'incendie et de secours de Vireux-Molhain,Rue de la Fonderie,08320,Vireux-Molhain,50.075784,4.721852
08,Centre de Secours Renforcé de Vouziers,17 Rue Albert Caquot,08400,Vouziers,49.394357,4.685922
08,Centre d'incendie et de secours de Vrigne-aux-Bois,14 Rue Pierre Viénot,08330,Vrigne aux Bois,49.735001,4.849896
09,Centre d'incendie et de secours d'Auzat,931 Vexane,09220,Auzat,42.764314,1.479283
09,Centre d'incendie et de secours de Bélesta,62 Avenue de Lavelanet,09300,Bélesta,42.908274,1.926370
09,Centre d'incendie et de secours de Castillon,9bis Avenue Noel Peyrevidal,09800,Castillon-en-Couserans,42.922737,1.031839
09,Centre d'incendie et de secours de Foix,3 Hameau Laborie,09000,Foix,42.979605,1.615832
09,Centre d'incendie et de secours de La Bastide-de-Sérou,98a Ensales,09240,La Bastide-de-Sérou,43.007968,1.435718
09,Centre d'incendie et de secours de Laroque-d'Olmes,12bis Rue Pablo Néruda,09600,Laroque-d'Olmes,42.973383,1.867627
09,Centre d'incendie et de secours de Lavelanet,12 Rue 1er Rgt C Parachutistes,09300,Lavelanet,42.930388,1.847352
09,Centre d'incendie et de secours du Mas d'Azil,2 Rue de la Quère,09290,Le Mas-d'Azil,43.078409,1.361070
09,Centre d'incendie et de secours du Donezan,121 Cazals,09460,Le Pla,42.711739,2.083394
09,Centre d'incendie et de secours de Lézat,191 Route de Castagnac,09210,Lézat-sur-Lèze,43.269145,1.349764
09,Centre d'incendie et de secours de Massat,10 Rue du Pont,09320,Massat,42.890025,1.348060
09,Centre d'incendie et de secours de Mazères,18 Rue du Temple,09270,Mazères,43.250001,1.677586
09,Centre d'incendie et de secours de Mirepoix,1086d Chemin de la Mestrise,09500,Mirepoix,43.087762,1.866254
09,Centre de secours principal de Pamiers,1a Voie Jules Vedrines,09100,Pamiers,43.130585,1.625781
09,Centre d'incendie et de secours de Saint-Girons,Avenue des Evadés de France,09200,Saint-Girons,42.978404,1.153101
09,Centre d'incendie et de secours de Saverdun,23 Rue du Capus,09700,Saverdun,43.233268,1.581545
09,Centre d'incendie et de secours d'Ax-les-Thermes,8 Route de Vaychis,09110,Savignac-les-Ormeaux,42.729220,1.825952
09,Centre d'incendie et de secours de Seix,2 Place de l’Allee,09140,Seix,42.863926,1.203552
09,Centre d'incendie et de secours de Tarascon-sur-Ariège,1222 Sere,09400,Tarascon-sur-Ariège,42.853209,1.598043
09,Centre d'incendie et de secours de Varilhes,50 Avenue du 8 Mai 1945,09120,Varilhes,43.046577,1.632671
09,Centre d'incendie et de secours de Vèbre,480 Traverse de la Remise,09310,Vèbre,42.771089,1.716153
10,Centre d'incendie et de secours d'Aix-en-Othe,3 Avenue Georges Clémenceau,10160,Aix-Villemaur-Pâlis,48.221952,3.730599
10,Centre d'incendie et de secours d'Arcis-sur-Aube,100bis Rue de Paris,10700,Arcis-sur-Aube,48.535584,4.132082
10,,148 Le Village,10200,Arrentières,48.263204,4.741957
10,Centre d'incendie et de secours de Bar-sur-Aube,29 Rue Louis Desprez,10200,Bar-sur-Aube,48.222707,4.711557
10,Centre d'incendie et de secours de Bar-sur-Seine,3 Faubourg De Champagne,10110,Bar-sur-Seine,48.118893,4.372850
10,Centre d'incendie et de secours de Bouilly,Rue Lorin Chevalier,10320,Bouilly,48.191565,3.998175
10,,2 Place du Preau,10500,Braux,48.483996,4.471845
10,Centre d'incendie et de secours de Brienne-le-Château,7 Boulevard Napoleon,10500,Brienne-le-Château,48.390667,4.531082
10,Centre de Première Intervention de Buchères,8 Rue du Monument,10800,Buchères,48.235135,4.115619
10,,12 Rue de la 2eme Db,10110,Buxières-sur-Arce,48.124626,4.457152
10,Centre de Première Intervention de Chalette-sur-Voire,15 Rue Suzanne Dahlem,10500,Chalette-sur-Voire,48.444692,4.425484
10,Centre de Première Intervention de Chamoy,10a Rue Aux Francs,10130,Chamoy,48.118563,3.970347
10,Centre d'incendie et de secours de Chaource,13 Rue des Roises,10210,Chaource,48.059281,4.138030
10,,49 Rue Saint Etienne,10380,Charny-le-Bachot,48.552016,3.944740
10,Centre d'incendie et de secours de Chavanges,3 Rue de la Fontaine d'Arrigny,10330,Chavanges,48.507365,4.576389
10,Centre de Première Intervention de Chessy-les-Prés,22 Rue de la Republique,10130,Chessy-les-Prés,48.025504,3.913104
10,,60 Grande Rue,10200,Colombé-la-Fosse,48.264110,4.789631
10,Centre de Première Intervention de Dosches,4 Rue du Grand Cernay,10220,Dosches,48.320273,4.248550
10,,17 Rue Saint Martin,10110,Éguilly-sous-Bois,48.138355,4.535598
10,,1 Grande Rue,10500,Épagne,48.392278,4.462090
10,Centre d'incendie et de secours d'Ervy-le-Châtel,12 Rue Denfert Rochereau,10130,Ervy-le-Châtel,48.042260,3.913226
10,Centre d'incendie et de secours d'Essoyes,36 Rue de la Gare,10360,Essoyes,48.061007,4.534654
10,Centre d'incendie et de secours d'Estissac,2 Chemin de la Madriere,10190,Estissac,48.258811,3.815268
10,,10 Rue Georges Millot,10700,Herbisse,48.623364,4.113000
10,,32 Rue Grande,10330,Jasseines,48.501225,4.384743
10,Caserne de Pompiers,13 Rue Jules Guesde,10440,La Rivière-de-Corps,48.285797,4.027424
10,,3 Place de l’Eglise,10330,Lentilles,48.483615,4.611925
10,,1 Route d’Arcis,10170,Les Grandes-Chapelles,48.464734,4.016915
10,Centre d'incendie et de secours des Riceys,27 Rue du Pont,10340,Les Riceys,47.997077,4.364771
10,,2 Rue du Pont,10240,Longsols,48.430417,4.288867
10,Centre d'incendie et de secours de Lusigny-sur-Barse,6 Rue Raymond Poincaré,10270,Lusigny-sur-Barse,48.253686,4.268074
10,,31 Rue Louis Doé,10150,Luyères,48.381521,4.194867
10,Centre d'incendie et de secours de Mailly-le-Camp,22 Rue Pasteur,10230,Mailly-le-Camp,48.667895,4.194889
10,Centre de Première Intervention de Maraye-en-Othe,3 Rue de la Belle Fayte,10160,Maraye-en-Othe,48.163622,3.851976
10,Centre d'incendie et de secours de Marcilly-le-Hayer,Rue des Vignes,10290,Marcilly-le-Hayer,48.347095,3.637195
10,Centre d'incendie et de secours de Marigny-le-Châtel,26 Rue Roger Salengro,10350,Marigny-le-Châtel,48.411633,3.737422
10,,1 Place de la Halle,10500,Mathaux,48.370764,4.477924
10,Centre d'incendie et de secours de Méry-sur-Seine,23 Rue Georges Flizot,10170,Méry-sur-Seine,48.511156,3.899878
10,CPI Montigny-les-Monts,1bis Rue du Pilori,10130,Montigny-les-Monts,48.103459,3.946159
10,,15 Rue Du Moulin,10500,Morvilliers,48.378850,4.619971
10,Centre d'incendie et de secours de Mussy-sur-Seine,3bis Rue Paul Terrillon,10250,Mussy-sur-Seine,47.975015,4.494299
10,Centre d'incendie et de secours de Nogent-sur-Seine,23 Avenue de Saint Roch,10400,Nogent-sur-Seine,48.496918,3.509975
10,,49 Rue Hugues de Payns,10600,Payns,48.383137,3.976220
10,Centre de Première Intervention de Petit-Mesnil,Place de la Mairie,10500,Petit-Mesnil,48.345604,4.596923
10,Centre d'incendie et de secours de Piney,3 Rue Chevillot,10220,Piney,48.364273,4.333273
10,,9 Rue des Anciens Combattants,10700,Pouan-les-Vallées,48.541519,4.064489
10,,16 Rue Saint Martin,10500,Précy-Saint-Martin,48.416877,4.447253
10,Centre de Première Intervention de Prugny,6 Grande Rue,10190,Prugny,48.246744,3.942721
10,,8 Rue de la Craise,10350,Prunay-Belleville,48.369661,3.772863
10,,48 Grande Rue,10500,Radonvilliers,48.355109,4.495736
10,Centre d'incendie et de secours de Ramerupt,Rue Maitre Carlet,10240,Ramerupt,48.520380,4.288575
10,Centre d'incendie et de secours de Romilly-sur-Seine,59 Rue Milford Haven,10100,Romilly-sur-Seine,48.505237,3.715831
10,Compagnie des Sapeurs-Pompiers de Rosières,1 Rue Guibout,10430,Rosières-près-Troyes,48.257267,4.063718
10,,Rue de Gentilly,10800,Saint-Julien-les-Villas,48.273986,4.098075
10,,4 Place du Marche au Ble,10160,Saint-Mards-en-Othe,48.173731,3.802573
10,Centre de Première Intervention de Saint-Mesmin,40 Rue de Chily,10280,Saint-Mesmin,48.444075,3.926750
10,Centre d'incendie et de secours de Saint-Parres-aux-Tertres,24bis Rue Edmé Denizot,10410,Saint-Parres-aux-Tertres,48.299935,4.117561
10,Centre d'incendie et de secours de Saint-Parres-les-Vaudes,20 Rue Anne Marie Jegou,10260,Saint-Parres-lès-Vaudes,48.166683,4.219138
10,Centre de Première Intervention de Saint-Phal,Rue des Anciens Combattants Afn,10130,Saint-Phal,48.120128,3.997712
10,Centre d'incendie et de secours Troyes Ouest,36 Rue Jean Renoir,10300,Sainte-Savine,48.301838,4.028611
10,,20 Rue des Fontaines,10700,Semoine,48.679678,4.088231
10,Centre de Première Intervention de Sommeval,247 Rue de l’Eglise,10320,Sommeval,48.165915,3.966411
10,CPI de Torvilliers,20 Grande Rue,10440,Torvilliers,48.275228,3.974626
10,Centre d'incendie et de secours de Troyes Vouldy,2 Rue Jean Nesmy,10000,Troyes,48.292108,4.087733
10,Centre d'incendie et de secours de Vendeuvre-sur-Barse,77 Grande Rue,10140,Vendeuvre-sur-Barse,48.237850,4.465336
10,Sapeurs Pompiers de Verrières,43 Rue de la République,10390,Verrières,48.230442,4.149897
10,,7 Route de Dijon,10310,Ville-sous-la-Ferté,48.119491,4.788906
10,Centre d'incendie et de secours de Villenauxe-la-Grande,9 Rue des Abattoirs,10370,Villenauxe-la-Grande,48.582452,3.551571
10,,41 Route Impériale,10150,Voué,48.457439,4.123475
11,,15 Rue du Moulin,11170,Alzonne,43.253574,2.179464
11,,12 Chemin de la Condomine,11140,Axat,42.795689,2.227021
11,Centre d'incendie et de secours d'Azille,9bis Avenue des Cathares,11700,Azille,43.278636,2.661929
11,Centre d'incendie et de secours de Belcaire,13 Rue de la Petite Versane,11340,Belcaire,42.816719,1.962026
11,Centre d'incendie et de secours de Belpech,4 Rue Saint Jean,11420,Belpech,43.196896,1.749855
11,Centre d'incendie et de secours de Bize-Minervois,8 Route de Mailhac,11120,Bize-Minervois,43.313952,2.864168
11,Centre de secours,13bis Rue Montsegur,11150,Bram,43.237192,2.114026
11,Centre d'incendie et de secours de Capendu,4 Avenue de Carcassonne,11700,Capendu,43.188083,2.548316
11,Centre de secours principal de Carcassonne,75d Avenue Bunau Varilla,11000,Carcassonne,43.208152,2.337949
11,Services de Sécurité et de Lutte contre les Incendies des Aéronefs,Au Bois de Salvaza,11000,Carcassonne,43.213984,2.309185
11,,2 Avenue Arnaut Vidal,11400,Castelnaudary,43.315502,1.949937
11,Centre d'incendie et de secours de Caunes-Minervois,34 Avenue du Stade,11160,Caunes-Minervois,43.321536,2.527380
11,,1 Zone Artisanale de la Gare,11230,Chalabre,42.987211,2.003048
11,Centre d'incendie et de secours de Couiza,6 Impasse de la Condamine,11190,Couiza,42.942832,2.257067
11,Centre d'incendie et de secours de de Coursan,30 Rue Gustave Eiffel,11110,Coursan,43.227544,3.045209
11,Centre d'incendie et de secours de Cuxac-Cabardès,2 Allée des Marronniers,11390,Cuxac-Cabardès,43.368489,2.279923
11,Centre de Secours,3 Rue de l'Ancien Comté,11360,Durban-Corbières,42.998128,2.823694
11,Caserne de pompiers Espéraza,100 Avenue de Carcassonne,11260,Espéraza,42.934254,2.227575
11,Centre d'incendie et de secours de Espéraza,100 Avenue de Carcassonne,11260,Espéraza,42.934374,2.227540
11,Centre d'incendie et de secours de Fabrezan,8 Rue des Tonnelles,11200,Fabrezan,43.142564,2.703079
11,Centre d'incendie et de secours de Fleury,4 Rue Francis Vals,11560,Fleury,43.230987,3.130153
11,Centre d'incendie et de secours de Gruissan,106 Avenue des Ayguades de Pech Rouge,11430,Gruissan,43.115060,3.104537
11,Centre d'incendie et de secours de La Palme,17 Rue Frédéric Mistral,11480,La Palme,42.973107,2.993764
11,Centre d'incendie et de secours de La Redorte,1 Lotissement Artisanal,11700,La Redorte,43.246761,2.657160
11,Centre d'incendie et de secours de Lagrasse,14 Route de Ribaute,11220,Lagrasse,43.091056,2.624051
11,Centre d'incendie et de secours de Laure-Minervois,Caserne des Pompiers,11800,Laure-Minervois,43.264646,2.516996
11,Centre d'incendie et de secours de Leucate,23 Zone Artisanale,11370,Leucate,42.903521,3.037316
11,Centre d'Incendie et de Secours de Lézignan-Corbières,5 Rue des Garrigues,11200,Lézignan-Corbières,43.187848,2.755732
11,Centre d'incendie et de secours de Limoux,5 Rue Porte Saint-Jean,11300,Limoux,43.051830,2.222210
11,Centre d'incendie et de secours de Montréal,1 Place Capitaine Carrie,11290,Montréal,43.199946,2.141242
11,Centre d'incendie et de secours de Mouthoumet,100 Impasse des Corbières,11330,Mouthoumet,42.959074,2.528897
11,Centre de secours principal de Narbonne,100 Chemin des Fours a Chaux,11100,Narbonne,43.173366,2.978145
11,Centre d'incendie et de secours de Narbonne-Plage,1 Chemin des Combes,11100,Narbonne,43.160213,3.161378
11,Caserne de pompiers de Peyriac-Minervois,18 Rue Leo Lagrange,11160,Peyriac-Minervois,43.288938,2.565515
11,Centre d'Incendie et de Secours Port-la-Nouvelle,91 Rue Edouard Herriot,11210,Port-la-Nouvelle,43.018403,3.045938
11,Centre d'incendie et de secours de Puichéric,As Cascals,11700,Puichéric,43.228167,2.631470
11,,239 Lapradelle,11140,Puilaurens,42.809785,2.308524
11,Centre d'Incendie et de Secours de Quillan,6 Chemin de Quillan à Saint-ferriol,11500,Quillan,42.885052,2.191557
11,Centre d'incendie et de secours de Saint-Laurent-de-la-Cabrerisse,57bis Avenue de Narbonne,11220,Saint-Laurent-de-la-Cabrerisse,43.086857,2.702703
11,Centre d'incendie et de secours de Saint-Nazaire-d'Aude,427 Avenue du Stade,11120,Saint-Nazaire-d'Aude,43.244819,2.888662
11,Centre d'incendie et de secours de Sainte-Colombe-sur-l'Hers,Zone industrielle,11230,Sainte-Colombe-sur-l'Hers,42.953344,1.963316
11,Centre d'incendie et de secours de Sallèles-d'Aude,5 Avenue d’Empare,11590,Sallèles-d'Aude,43.258153,2.945372
11,Centre d'incendie et de secours de Salles-d'Aude,13 Chemin des Amandiers,11110,Salles-d'Aude,43.236481,3.108582
11,Centre d'incendie et de secours de Salles-sur-l'Hers,283 ZA le Cardona,11410,Salles-sur-l'Hers,43.294271,1.788223
11,Centre d'incendie et de secours de Salsigne,Rue du Foyer,11600,Salsigne,43.328648,2.359258
11,Centre d'incendie et de secours de Sigean,Avenue Joseph Campardou,11130,Sigean,43.021866,2.976949
11,Centre d'incendie et de secours de Trèbes,1 Chemin de Béziers,11800,Trèbes,43.208536,2.455516
11,,28bis Route de Narbonne,11350,Tuchan,42.887242,2.729051
12,Centre d'incendie et de secours de Lacalm,153 Avenue de Chaudes Aigues,12420,Argences en Aubrac,44.773044,2.884279
12,Centre d'incendie et de secours de Sainte-Genevève-sur-Argence,9 Route de Cantoin,12420,Argences en Aubrac,44.803463,2.763395
12,Centre d'incendie et de secours du Haut Ségala,102 Rue de Wagram,12160,Baraqueville,44.278245,2.427873
12,Belmont-sur-Rance,691 Avenue de Saint Affrique,12370,Belmont-sur-Rance,43.822166,2.753738
12,Centre d'incendie et de secours de Bozouls,11 Rue des Cardabelles,12340,Bozouls,44.472150,2.726761
12,Centre d'incendie et de secours du Rougier de Camares,23 Avenue de Saint Affrique,12360,Camarès,43.828722,2.875045
12,Centre d'incendie et de secours de Capdenac-Gare,18 Impasse Vincent Auriol,12700,Capdenac-Gare,44.569007,2.083116
12,Centre d'incendie et de secours de Cassagnes-Bégonhès,174 Place du Bournhou,12120,Cassagnes-Bégonhès,44.170156,2.533100
12,Centre d'incendie et de secours d'Entraygues-sur-Truyère,2 Avenue de Rodiez,12140,Entraygues-sur-Truyère,44.637909,2.570818
12,Centre d'incendie et de secours d'Estaing,1 Rue de l’Avenir,12190,Estaing,44.557877,2.670708
12,Centre d'incendie et de secours de La Salvetat-Peyrales,6 Route du Ponteil,12440,La Salvetat-Peyralès,44.216279,2.202666
12,Centre d'incendie et de secours de Laguiole,16 Lotissement du Frene,12210,Laguiole,44.683123,2.856430
12,Centre d'incendie et de secours de Laissac,18 Chemin d’Ampiac,12310,Laissac-Sévérac l'Église,44.386046,2.822053
12,,24 Avenue Gustave Bessiere,12330,Marcillac-Vallon,44.476695,2.455920
12,Centre de secours principal Millau Grands Causses,Carratieres Hautes,12100,Millau,44.119709,3.064052
12,Centre d'incendie et de secours de Montbazens,8 Rue de la Piscine,12220,Montbazens,44.476530,2.227888
12,Centre d'incendie et de secours de Nant,10 Route des Liquisses,12230,Nant,44.023292,3.296831
12,Centre d'incendie et de secours de Naucelle,6 Rue Frederic Mistral,12800,Naucelle,44.199033,2.339474
12,Centre d'incendie et de secours de Pont-de-Salars,273 Route des Artisans,12290,Pont-de-Salars,44.288355,2.712422
12,Centre d'incendie et de secours de Pradinas,44 Impasse des Rosiers,12240,Pradinas,44.238524,2.265551
12,Centre d'incendie et de secours de Réquista,1 Rue Traversiere,12170,Réquista,44.033877,2.536731
12,Centre d'incendie et de secours de Rieupeyroux,168 Impasse de la Caserne,12240,Rieupeyroux,44.306880,2.249162
12,Centre d'incendie et de secours de Rignac,18 Rue des Ebenistes,12390,Rignac,44.407181,2.292009
12,Centre de secours principal de Rodez,13 Rue Sainte Barbe,12000,Rodez,44.359820,2.573596
12,Centre d'incendie et de secours de Roquefort-sur-Soulzon,139 Impasse Sainte Barbe,12250,Roquefort-sur-Soulzon,43.979318,2.985610
12,Centre d'incendie et de secours de Saint-Geniez-d'Olt,1 Chateau de la Falque,12130,Saint Geniez d'Olt et d'Aubrac,44.464457,2.959879
12,Centre de secours principal de Saint-Affrique,12 Boulevard de Verdun,12400,Saint-Affrique,43.957167,2.881028
12,Centre d'incendie et de secours de Saint-Amans-des-Cots,Camp Grand,12460,Saint-Amans-des-Cots,44.690908,2.670262
12,Centre d'incendie et de secours de Saint-Chély-d'Aubrac,Rue du Pont Neuf,12470,Saint-Chély-d'Aubrac,44.590427,2.926115
12,Centre de secours principal du Nord-Aveyron,1670 Route d'Espalion,12500,Saint-Côme-d'Olt,44.519547,2.783433
12,Centre d'incendie et de secours de Saint-Laurent-d'Olt,2 Route du centre de secours,12560,Saint-Laurent-d'Olt,44.443215,3.108779
12,Centre d'incendie et de secours de Saint-Rome-de-Tarn,2 Impasse de Comberoubi,12490,Saint-Rome-de-Tarn,44.041564,2.910946
12,Saint-Sernin-sur-Rance,Place de la Paix,12380,Saint-Sernin-sur-Rance,43.885551,2.604029
12,Centre d'incendie et de secours de Salles-Curan,11 Place du Foirail,12410,Salles-Curan,44.181126,2.788113
12,Centre d'incendie et de secours de Sévérac-le-Château,12 Rue de la Tricouse,12150,Sévérac d'Aveyron,44.330476,3.065693
12,Centre d'incendie et de secours de Carladez,250 Route de Bel Air,12600,Taussac,44.830633,2.662045
12,Centre d'incendie et de secours de Villecomtal,4 Avenue du 19 Mars 1962,12580,Villecomtal,44.535286,2.564671
12,Centre d'incendie et de secours de Villefranche-de-Panat,18 Place du Foirail,12430,Villefranche-de-Panat,44.087241,2.706043
12,Centre de secours principal de Villefranche-de-Rouergue,137 Route de la Mathébie,12200,Villefranche-de-Rouergue,44.361621,1.997630
12,Centre de secours principal du Bassin,16 Avenue Adam Grange,12110,Viviez,44.559863,2.219254
13,Centre de secours principal d'Aix-en-Provence - La Chevalière,40 Allée des Dolia,13090,Aix-en-Provence,43.546150,5.430719
13,Centre d'incendie et de secours de Luynes,590 Route de Marseille,13080,Aix-en-Provence,43.477781,5.413558
13,Centre d’incendie et de secours Aix La Torse,10 Rue  Pierre de Coubertin,13100,Aix-en-Provence,43.522962,5.461354
13,Centre d'incendie et de secours d’Allauch/Plan-de-Cuques,1 Chemin des Ateliers,13190,Allauch,43.328233,5.477757
13,Centre de secours principal d'Arles,1289 Chemin de Fourchon,13200,Arles,43.658868,4.639415
13,Centre d'incendie et de secours de Salin-de-Giraud,20 Rue de la Bouvino,13129,Arles,43.412431,4.731600
13,Centre de secours principal d'Aubagne,711 Avenue du 21 Aout 1944,13400,Aubagne,43.286709,5.558467
13,Forestiers-Sapeurs - Unité d'Aubagne,500 Route des Aubes,13400,Aubagne,43.300274,5.580988
13,Centre d'incendie et de secours d’Auriol,Avenue du 19 Mars 1962,13390,Auriol,43.369553,5.653694
13,Centre d'incendie et de secours de Berre-L'Étang,298 Allée Plein Soleil,13130,Berre-l'Étang,43.480314,5.175953
13,Centre d'incendie et de secours de La Montagnette,130 Impasse des Romarins,13150,Boulbon,43.894547,4.707623
13,Centre d'incendie et de secours de Carnoux-en-Provence,8 Rue de la République,13470,Carnoux-en-Provence,43.256799,5.564347
13,Centre d'incendie et de secours de Cassis,21 Avenue des Carriers,13260,Cassis,43.218175,5.532869
13,Centre d'incendie et de secours de Châteauneuf-les-Martigues,Boulevard Jean-jacques Rousseau,13220,Châteauneuf-les-Martigues,43.389131,5.161360
13,Forestiers-Sapeurs - Unité de Châteauneuf-les-Martigues,15 Avenue de la Moute,13220,Châteauneuf-les-Martigues,43.391257,5.149206
13,Centre d'incendie et de secours de Châteaurenard,52 Avenue de la Libération,13160,Châteaurenard,43.885033,4.860244
13,Centre d'incendie et de secours de Basse Vallée de l’Arc.,1328 Route de Velaux,13111,Coudoux,43.547011,5.255845
13,Centre d'incendie et de secours de Cuges-les-Pins,500 Chemin de la Feutriere,13780,Cuges-les-Pins,43.273446,5.710830
13,,90 Chemin de Rastel,13510,Éguilles,43.574156,5.344431
13,Centre d'incendie et de secours Côte Bleue Est,400 Allee du Stade,13820,Ensuès-la-Redonne,43.356051,5.189142
13,Centre d'incendie et de secours d'Eyguières,3 Chemin du Hangar d'Émilien,13430,Eyguières,43.687510,5.040105
13,Centre d'incendie et de secours d’Eyragues,202 Chemin de Notre-Dame,13630,Eyragues,43.839484,4.837421
13,Centre d'incendie et de secours de Fos-sur-Mer,1050 Route des Crottes,13270,Fos-sur-Mer,43.476029,4.948283
13,Centre d'incendie et de secours de Fuveau,275 Avenue du Maréchal Leclerc,13710,Fuveau,43.451327,5.556945
13,Centre d'incendie et de secours de Gardanne,32 Avenue du Docteur Raoul Decoppet,13120,Gardanne,43.458477,5.462599
13,Centre d'incendie et de secours de Gémenos,1313 Avenue de la Sainte-Baume,13420,Gémenos,43.278751,5.620920
13,Centre d'incendie et de secours de Graveson,81 Ancien Chemin d'Arles,13690,Graveson,43.848770,4.764199
13,Centre d'incendie et de secours de Concors,2576 Route de Peyrolles,13490,Jouques,43.644846,5.605833
13,Forestiers-Sapeurs - Unité de Peyrolles-en-Provence,2576 Route de Peyrolles,13490,Jouques,43.645629,5.606459
13,Centre d'incendie et de secours de La Bouilladisse,2b Chemin des Gorguettes,13720,La Bouilladisse,43.397515,5.601258
13,Centre d'incendie et de secours de La Ciotat - Ceyreste,846 Avenue Emile Bodin,13600,La Ciotat,43.192201,5.602650
13,Centre d'incendie et de secours de La Roque - Charleval,16 rue Gutenberg,13640,La Roque-d'Anthéron,43.722921,5.280688
13,Centre d'incendie et de secours de Lamanon,Caserne des Pompiers,13113,Lamanon,43.698881,5.086384
13,Centre d'incendie et de secours de Lambesc,2 Avenue du 8 Mai 1945,13410,Lambesc,43.649497,5.264049
13,Forestiers-Sapeurs - Unité de Lambesc,29bis Avenue Fernand Julien,13410,Lambesc,43.645941,5.254200
13,Centre d'incendie et de secours des Pennes-Mirabeau,254 Avenue François Mitterrand,13170,Les Pennes-Mirabeau,43.403454,5.334645
13,Centre d'incendie et de secours de Mallemort,110 Avenue des Frères Roqueplan,13370,Mallemort,43.732924,5.172961
13,Centre d'incendie et de secours de Marignane,26 Rue Henri Barrelet,13700,Marignane,43.417952,5.209931
13,Centre d'incendie et de secours Saint-Just,24 Rue alphonse daudet,13013,Marseille,43.317701,5.407166
13,Centre d'incendie et de secours Canebière,39 Rue vincent scotto,13001,Marseille,43.297544,5.379895
13,Centre d'incendie et de secours du Frioul,Place de la chapelle,13007,Marseille,43.279987,5.304143
13,Centre d’incendie et de secours Luminy,Rue antoine bourdelle,13009,Marseille,43.234896,5.433890
13,Centre d’incendie et de secours Saint-Pierre,263 Rue saint pierre,13005,Marseille,43.292483,5.402246
13,Centre d'incendie et de secours Saint-Antoine,26 Route de la gavotte,13015,Marseille,43.374100,5.355044
13,Centre d'incendie et de secours Plombières,117 Boulevard de plombieres,13003,Marseille,43.317131,5.380099
13,Centre d’incendie et de secours Endoume,59 Rue sauveur tobelem,13007,Marseille,43.287138,5.361611
13,Centre d'incendie et de secours de la Valbarelle,44 Boulevard de la valbarelle,13011,Marseille,43.286931,5.444792
13,Centre d'incendie et de secours Saint-Lazare,23 Rue de blidah,13003,Marseille,43.306264,5.374932
13,Centre d'incendie et de secours de Château-Gombert,54 Boulevard bara,13013,Marseille,43.349898,5.442699
13,Centre d'incendie et de secours Malpassé,Voie d'accès raimu marins pompiers,13014,Marseille,43.328901,5.397023
13,Centre d'incendie et de secours La Bigue,Quai de la grande bigue,13002,Marseille,43.321143,5.359273
13,Centre d'incendie et de secours de Pointe-Rouge,16 Promenade du grand large,13008,Marseille,43.242131,5.364868
13,,Avenue de la croix rouge,13013,Marseille,43.333028,5.439191
13,Centre d'incendie et de secours Saint-Menet,17 Avenue de saint menet,13011,Marseille,43.289774,5.496225
13,État-major du bataillon de marins-pompiers de Marseille,7 Boulevard de strasbourg,13003,Marseille,43.307019,5.374647
13,Centre d'incendie et de secours Louvain,8 Boulevard de louvain,13008,Marseille,43.275943,5.391155
13,Centre d’incendie et de secours Saumaty,Rond-Point fontaine des tuiles,13016,Marseille,43.357247,5.321537
13,Centre d'incendie et de secours Saint-Julien,23 Avenue du bousquetier,13012,Marseille,43.319037,5.442249
13,Centre de secours principal de Martigues,1 Traverse Louise Michel,13500,Martigues,43.423060,5.047899
13,Centre d'incendie et de secours de La Couronne,20 Route des Bastides,13500,Martigues,43.340038,5.058895
13,Centre d'incendie et de secours de Vallée des Baux,3 Avenue de Roquerousse,13520,Maussane-les-Alpilles,43.710341,4.802632
13,Centre d'incendie et de secours de Meyrargues,78 Cours des Alpes,13650,Meyrargues,43.640453,5.527032
13,Centre d'incendie et de secours de Mimet,84 Chemin des Régalets,13105,Mimet,43.418684,5.500022
13,CCFF,10 Chemin des Pins,13140,Miramas,43.560148,5.025440
13,CCFF,79 Avenue Jean Moulin,13140,Miramas,43.578785,5.007894
13,Centre d'incendie et de secours de Miramas,8 Avenue du 8 Mai 1945,13140,Miramas,43.592283,5.004950
13,Centre d'incendie et de secours de Alpilles-Durance,58 Chemin de Poupaille,13940,Mollégès,43.806697,4.956520
13,Centre d'incendie et de secours de Noves - Cabannes,1197 Route de Saint-Andiol D28D,13550,Noves,43.866568,4.911395
13,Centre d'incendie et de secours de Pélissanne,1320ter Route de Lambesc,13330,Pélissanne,43.635639,5.170921
13,Forestiers-Sapeurs - Unité de Peynier,85 Chemin Departemental 6,13790,Peynier,43.463400,5.614023
13,Centre d'incendie et de secours Second-Maître Gaulier,9 Rue de la République,13110,Port-de-Bouc,43.400976,4.982156
13,Centre d'incendie et de secours de Port-de-Bouc,60 Chemin des Termes,13110,Port-de-Bouc,43.423788,4.995535
13,Centre d'incendie et de secours de Port-Saint-Louis,25 Avenue Marx Dormoy,13230,Port-Saint-Louis-du-Rhône,43.392204,4.814463
13,Centre d'incendie et de secours de Rognac,286 Avenue Jean Mermoz,13340,Rognac,43.493958,5.226933
13,Centre d'incendie et de secours de Roquefort-la-Bédoule,6 Avenue Romain Rolland,13830,Roquefort-la-Bédoule,43.249241,5.583543
13,Centre d'incendie et de secours de Roquevaire,Centre de secours de Roquevaire,13360,Roquevaire,43.340303,5.603059
13,Centre d'incendie et de secours de Saint-Étienne-du-Grès,723 Place du Marche,13103,Saint-Étienne-du-Grès,43.783194,4.735157
13,Centre d'incendie et de secours de Sainte-Victoire,3843 Place Hotel de Ville,13100,Saint-Marc-Jaumegarde,43.547808,5.523984
13,Centre d'incendie et de secours de Saint-Martin-de-Crau,40 Avenue de Manerbio,13310,Saint-Martin-de-Crau,43.638715,4.829652
13,Centre d'incendie et de secours de Saint-Mitre-les-Remparts,95 Rue Bellefont,13920,Saint-Mitre-les-Remparts,43.457339,5.009041
13,Centre d'incendie et de secours de Saint-Paul-lez-Durance,153 Route de Rians,13115,Saint-Paul-lès-Durance,43.685069,5.710413
13,Forestiers-Sapeurs - Unité de Saint-Rémy-de-Provence,14 Avenue 1ere Division Française Libre,13210,Saint-Rémy-de-Provence,43.794902,4.827622
13,Centre d'incendie et de secours de Saint-Rémy-de-Provence,Avenue du Marechal Juin,13210,Saint-Rémy-de-Provence,43.792762,4.827635
13,Centre d'incendie et de secours des Saintes-Maries-de-la-Mer,2 Androuno Di Piluro,13460,Saintes-Maries-de-la-Mer,43.457711,4.428831
13,Centre d'incendie et de secours de Salon-de-Provence.,87 Rue du Professeur Arnaud,13300,Salon-de-Provence,43.629315,5.114066
13,Centre d'incendie et de secours de Sausset-les-Pins,Avenue des 3 Communes,13960,Sausset-les-Pins,43.339741,5.102171
13,Centre d'incendie et de secours de Sénas - Mallemort,Qrt du Pont de la Pierre,13560,Sénas,43.744961,5.079994
13,Centre d'incendie et de secours de Septèmes-les-Vallons,81 Rue de la Tour,13240,Septèmes-les-Vallons,43.402656,5.365091
13,Centre d'incendie et de secours de Tarascon,206 Avenue Auguste Chabaud,13150,Tarascon,43.812001,4.667856
13,Centre d'incendie et de secours de Trets,13 Route de Gardanne,13530,Trets,43.452042,5.670927
14,Centre d'incendie et de secours d'Amfreville,Impasse Sainte-Barbe,14860,Amfreville,49.246232,-0.232942
14,Centre d'incendie et de secours d'Argences,17 Rue du Vérignier,14370,Argences,49.122506,-0.161701
14,Centre d'incendie et de secours de Balleroy,105 Rue du Sapin,14490,Balleroy-sur-Drôme,49.183213,-0.831499
14,Centre d'incendie et de secours de Bayeux,76 Rue Saint-Patrice,14400,Bayeux,49.282076,-0.716388
14,Centre d'incendie et de secours de Blangy-le-Château,9 Route du Mesnil,14130,Blangy-le-Château,49.245483,0.273855
14,Centre d'incendie et de secours de Bretteville-Sur-Laize,5 Route des Riffets,14680,Bretteville-sur-Laize,49.055174,-0.323210
14,Centre de Secours Principal Caen-Couvrechef,21 Boulevard Maréchal Juin,14000,Caen,49.208562,-0.372030
14,Centre d'incendie et de secours de Cambremer,2 Rue du Comice,14340,Cambremer,49.152158,0.047338
14,Centre d'incendie et de secours de Caumont-l'Éventé,7 Rue de l'Ancienne Gare,14240,Caumont-sur-Aure,49.088726,-0.809412
14,Centre d'incendie et de secours de Clécy,7 Rue du Puits de la Vie,14570,Clécy,48.915266,-0.480602
14,Centre d'Incendie et de Secours de Condé-en-Normandie,11 Rue Saint-Gilles,14110,Condé-en-Normandie,48.853412,-0.550494
14,Centre d'incendie et de secours de Courseulles-sur-Mer,9 Quai Est,14470,Courseulles-sur-Mer,49.333040,-0.461627
14,Centre d'incendie et de secours de Creully,19 Rue du Maréchal Montgomery,14480,Creully sur Seulles,49.286592,-0.540907
14,Centre d'incendie et de secours de Dozulé,7 Place du Haras,14430,Dozulé,49.230355,-0.042678
14,Centre d'incendie et de secours de Thury-Harcourt,4 Rue des Prairies,14220,Esson,48.976807,-0.473772
14,Centre d'incendie et de secours de Grandcamp-Maisy,5 Rue du Moulin Odo,14450,Grandcamp-Maisy,49.386081,-1.037986
14,Centre d'incendie et de secours de Honfleur,40 Rue du Nouveau Monde,14600,Honfleur,49.391992,0.249018
14,,18 Chemin de Trousseauville,14510,Houlgate,49.290918,-0.072260
14,Centre de secours principal d'Ifs,3 Rue Alfred Nobel,14123,Ifs,49.147701,-0.333383
14,Centre d'incendie et de secours d'Isigny-sur-Mer,9 Place de Verdun,14230,Isigny-sur-Mer,49.320122,-1.104208
14,Centre d'incendie et de secours de Landelles-et-Coupigny,1 Rue de la 29e Div Américaine,14380,Landelles-et-Coupigny,48.889184,-0.999511
14,Centre d'incendie et de secours du Molay-Littry,Rue de la Caserne,14330,Le Molay-Littry,49.240987,-0.870235
14,Centre d'incendie et de secours des Monts-d’Aunay,Impasse du Château (Aunay-sur-Odon),14260,Les Monts d'Aunay,49.028609,-0.637261
14,Centre d'incendie et de secours de Lisieux,5bis Rue Gaëtane Bouffay,14100,Lisieux,49.151415,0.223250
14,Centre d'incendie et de secours de Livarot,11 Boulevard Gustave Timmerman,14140,Livarot-Pays-d'Auge,49.012428,0.158675
14,Centre d'Incendie et de Secours de Mézidon,20 Rue Jules Ferry,14270,Mézidon Vallée d'Auge,49.072762,-0.079414
14,Centre d'incendie et de secours de Moyaux,2ter Rue du Général de Gaulle,14590,Moyaux,49.194418,0.357851
14,Centre d'incendie et de secours de Saint-Sever,10 Rue Margerie,14380,Noues de Sienne,48.840968,-1.045960
14,Centre d'incendie et de secours d'Orbec,57 Chemin du Pont Bailey,14290,Orbec,49.032469,0.386278
14,Centre d'incendie et de secours de Ouistreham,1 Rue des Rouges-Gorges,14150,Ouistreham,49.277368,-0.267162
14,Centre d'incendie et de secours de Pont-d'Ouilly,2 Place Charles de Gaulle,14690,Pont-d'Ouilly,48.874308,-0.409274
14,Centre d'incendie et de secours de Pont-L'Évêque,1 Avenue de Verdun,14130,Pont-l'Évêque,49.285345,0.186810
14,Centre d'incendie et de secours de Potigny,Place de la 1ère Division Blindée Polonaise,14420,Potigny,48.968814,-0.242209
14,Centre d'incendie et de secours de Falaise,Impasse les Hogues,14700,Saint-Martin-de-Mieux,48.884446,-0.218441
14,CIS Saint-Pierre-en-Auge,5 Rue du Bief,14170,Saint-Pierre-en-Auge,49.016790,-0.038572
14,Centre d'incendie et de secours du Bény-Bocage,1 Route de la Sablonnière,14350,Souleuvre en Bocage,48.938010,-0.846956
14,Centre d'incendie et de secours de Saint-Martin-des-Besaces,2 Zone Artisanale Les Blanches Landes,14350,Souleuvre en Bocage,49.010753,-0.858607
14,Centre d'incendie et de secours de Touques,19 Chemin du Roy,14800,Touques,49.350669,0.093906
14,Centre d'incendie et de secours de Trévières,111 Rue Pierrot,14710,Trévières,49.307891,-0.905315
14,Centre d'incendie et de secours de Troarn,1 Rue Caporal Louis Eloi,14670,Troarn,49.187459,-0.190728
14,Centre d'incendie et de secours de Vassy,2 Rue du Canal,14410,Valdallière,48.853237,-0.679028
14,Centre d'incendie et de secours de Villers-sur-Mer,18 Rue de Beaumont,14640,Villers-sur-Mer,49.315377,0.009713
14,Centre d'incendie et de secours de Villy-Bocage,Rue du Jardin Thomas,14310,Villy-Bocage,49.093174,-0.643393
14,Centre d'incendie et de secours de Vire,227 Impasse Lavoisier,14500,Vire Normandie,48.854647,-0.888583
15,Centre d'incendie et de secours d'Allanche,26 Rue Saint-eloi,15160,Allanche,45.227235,2.935620
15,Centre d'incendie et de secours d'Ally,28 Rue de la Minoterie,15700,Ally,45.174394,2.319976
15,Centre d'incendie et de secours d'Anglards-de-Salers,5 rue Maurice Bergeron,15380,Anglards-de-Salers,45.202892,2.439237
15,Centre de secours principal d'Aurillac,165 Avenue du Général Leclerc,15000,Aurillac,44.909165,2.448343
15,Centre d'incendie et de secours de La Pinatelle,5 Rue de la Reine Margot,15170,Chalinargues,45.156535,2.931951
15,Centre d'incendie et de secours de Champs-sur-Tarentaine,26 Route de Sarran,15270,Champs-sur-Tarentaine-Marchal,45.396363,2.567721
15,Centre d'incendie et de secours de Chaudes-Aigues,31 Rue Saint-julien,15110,Chaudes-Aigues,44.855697,3.005720
15,Centre d'incendie et de secours de Condat,22 Rue du Collège,15190,Condat,45.339294,2.754662
15,Centre d'incendie et de secours de La Chapelle-Laurent,51 Route D'Auvergne,15500,La Chapelle-Laurent,45.176047,3.243488
15,Centre d'incendie et de secours de Laroquebrou,1 Rue du 11 Juin 1944,15150,Laroquebrou,44.966597,2.192055
15,caserne de pompiers,1 Rue du 11 Juin 1944,15150,Laroquebrou,44.966615,2.192036
15,Salle des fêtes et caserne de pompiers,1 Rue du 11 Juin 1944,15150,Laroquebrou,44.966712,2.192124
15,Centre d'incendie et de secours Le Claux - Cheylade,2 Route de Lachamp,15400,Le Claux,45.162639,2.706929
15,Centre d'incendie et de secours du Falgoux,10 Route du Pré de l'eau,15380,Le Falgoux,45.154305,2.619805
15,Centre d'incendie et de secours de Marcenat,7 Rue de la Paralongue,15190,Marcenat,45.303566,2.830531
15,Centre d'incendie et de secours de Massiac,3 Place Docteur Marcellin Moret,15500,Massiac,45.249673,3.198867
15,Centre de secours principal de Mauriac,2 Avenue du Commandant Gabon,15200,Mauriac,45.214749,2.336160
15,Centre d'incendie et de secours de Maurs,5 Rue Figeagaise,15600,Maurs,44.710481,2.196537
15,Centre d'incendie et de secours de Montsalvy,11 Av de l’Oeuvre Louis Conlombant,15120,Montsalvy,44.708344,2.496736
15,Centre d'incendie et de secours de Murat,15 Rue du Stade,15300,Murat,45.106246,2.865606
15,Centre d'incendie et de secours de Neussargues-en-Pinatelle,2 Allée des Peupliers,15170,Neussargues-Moissac,45.133581,2.981112
15,Centre d'incendie et de secours de Neuvéglise,21 Rue de Vareine - Neuvéglise,15260,Neuvéglise-sur-Truyère,44.927964,2.996423
15,Centre d'incendie et de secours de Paulhac,5 route du col de Prat de Bouc,15430,Paulhac,45.003807,2.907102
15,Centre d'incendie et de secours de Pierrefort,6 Rue de l’Aubrac,15230,Pierrefort,44.925740,2.841579
15,Centre d'incendie et de secours de Pleaux,6 voie d'Albois,15700,Pleaux,45.138183,2.224810
15,Centre d'incendie et de secours de Polminhac,1 Place du 19 Mars 1962,15800,Polminhac,44.951715,2.581018
15,Centre d'incendie et de secours de Riom-ès-Montagnes,13 Rue Large,15400,Riom-ès-Montagnes,45.284185,2.654106
15,Centre d'incendie et de secours de Ruynes-en-Margeride,5 Rue Antoine Aubazat,15320,Ruynes-en-Margeride,45.000467,3.225547
15,Centre d'incendie et de secours de Saint-Cernin,1 Zone Artisanale de la Doire,15310,Saint-Cernin,45.051643,2.426185
15,Centre d'incendie et de secours de Saint-Étienne de Chomeil,2 route des 3 tilleuls,15400,Saint-Étienne-de-Chomeil,45.342678,2.600908
15,Centre de secours principal de Saint-Flour,24bis Avenue de Besserette,15100,Saint-Flour,45.037306,3.080761
15,Centre d'incendie et de secours de Saint-Mamet-la-Salvetat,6 Rue de l’Hippodrome,15220,Saint-Mamet-la-Salvetat,44.859738,2.306227
15,Centre d'incendie et de secours de Saint-Martin-Valmeroux,5 Rue des Hêtres,15140,Saint-Martin-Valmeroux,45.117181,2.424203
15,Centre d'incendie et de secours de Saint-Urcize,8 place du Ters,15110,Saint-Urcize,44.695598,3.002146
15,Centre d'incendie et de secours de Salers,1 Rue du Puy Violent,15140,Salers,45.136155,2.486364
15,Centre d'incendie et de secours de Thiézac,17 Grand'Rue,15800,Thiézac,45.015345,2.664223
15,Centre d'incendie et de secours de Trizac,4 Rue des Arcades,15400,Trizac,45.252749,2.539407
15,Centre d'incendie et de secours de Vic-sur-Cère,Rue du 14 Juillet 1789,15800,Vic-sur-Cère,44.981310,2.627635
15,Centre d'incendie et de secours d'Ydes,17 Rue du Professeur Henri Mondor,15210,Ydes,45.343940,2.434455
16,Centre de Secours,15bis Avenue du 8 Mai 1945,16140,Aigre,45.888649,0.010338
16,Centre de secours principal d'Angoulême,6 Rue Bernard Lelay,16000,Angoulême,45.656939,0.185509
16,,Rue Bernard Lelay,16000,Angoulême,45.657855,0.185832
16,Centre d'incendie et de secours de Barbezieux,3c Chemin Noir,16300,Barbezieux-Saint-Hilaire,45.475392,-0.156314
16,Centre d'incendie et de secours de Brigueuil,4 Route de Saulgond,16420,Brigueuil,45.954248,0.857316
16,Centre d'incendie et de secours de Chabanais,8 Rue Alsace Lorraine,16150,Chabanais,45.874238,0.721421
16,,70 Route de Barbezieux,16210,Chalais,45.273525,0.031892
16,,3 Rue de la Ressource,16350,Champagne-Mouton,45.994192,0.411925
16,Centre d'incendie et de secours de Chasseneuil-sur-Bonnieure,4 Rue Sainte Barbe,16260,Chasseneuil-sur-Bonnieure,45.826272,0.445852
16,Centre d'incendie et de secours de Châteauneuf-sur-Charente,275 Route d'Angouleme,16120,Châteauneuf-sur-Charente,45.597331,-0.045536
16,Centre de secours principal de Cognac,35 Rue Pierre Loti,16100,Cognac,45.694977,-0.352729
16,,21 Avenue Gambetta,16500,Confolens,46.021466,0.668855
16,Centre d'incendie et de secours de Jarnac,32 Avenue de l'Europe,16200,Jarnac,45.686072,-0.164531
16,Service département d'incendie et de secours de Charente,5 Rue Denis Papin,16340,L'Isle-d'Espagnac,45.658800,0.185465
16,Centre de secours principal de La Couronne,72 Route de Bordeaux,16400,La Couronne,45.612823,0.098919
16,,1 Rue Antoine Fontan,16110,La Rochefoucauld-en-Angoumois,45.736863,0.386683
16,Centre d'incendie et de secours de Mansle,19 Avenue Paul Mairat,16230,Mansle-les-Fontaines,45.872209,0.170296
16,,10 Rue de Chez Briquet,16220,Montbron,45.663191,0.497889
16,Centre d'incendie et de secours de Montmoreau,3 Rue du Champ de Foire,16190,Montmoreau,45.399159,0.128663
16,Centre d'incendie et de secours de Blanzac,1 Place de l'Avenir,16250,Pérignac,45.473740,0.033585
16,CIS Rouillac,333 Avenue Jean Monnet,16170,Rouillac,45.773530,-0.066357
16,Centre de Secours de Ruffec,10 Boulevard des Grands Rocs,16700,Ruffec,46.030493,0.204413
16,Centre d'incendie et de secours de Saint-Claud,48 Rue du Farnaud,16450,Saint-Claud,45.901810,0.458101
16,,6 Route de Montmoreau,16390,Saint-Séverin,45.315018,0.249030
16,Centre d'incendie et de secours de Segonzac,1 Rue du Stade,16130,Segonzac,45.618802,-0.221625
16,Centre d'incendie et de secours de Roumazière,6bis Rue des Paleines,16270,Terres-de-Haute-Charente,45.884738,0.582420
16,Centre d'incendie et de secours de Baignes,22 Rue de De la Bourbonerie,16360,Touvérac,45.383239,-0.232710
16,Centre d'incendie et de secours de Villebois-Lavalette,27 Avenue de Maison Blanche,16320,Villebois-Lavalette,45.490577,0.276382
16,Centre d'Incendie et de Secours,20 Rue du Champ de Foire,16240,Villefagnan,46.014468,0.078939
17,Centre d'incendie et de secours d'Aigrefeuille-d'Aunis,21 Rue de Saint-Christophe,17290,Aigrefeuille-d'Aunis,46.120329,-0.938188
17,Centre d'incendie et de secours d'Archiac,8 Route de Cognac,17520,Archiac,45.525459,-0.298507
17,Centre d'incendie et de secours d'Ardillières,7 Rue du Grand Pre,17290,Ardillières,46.057090,-0.890494
17,Centre d'incendie et de secours d'Ars-en-Ré,11 Route de la Prée,17590,Ars-en-Ré,46.207574,-1.507931
17,Centre d'incendie et de secours d'Aulnay,31 Rue des Carmes,17470,Aulnay,46.021914,-0.351162
17,Centre d'incendie et de secours de Beauvais-sur-Matha,9 Rue des Marronniers,17490,Beauvais-sur-Matha,45.884065,-0.188566
17,Centre d'incendie et de secours de Bords,13 Rue de l'Hôpiteau,17430,Bords,45.894743,-0.791559
17,Centre d'incendie et de secours d'Anais-Bouhet,Bouhet,17540,Bouhet,46.160234,-0.860612
17,Centre d'incendie et de secours de Bourcefranc-le-Chapus,9 Rue Aristide Briand,17560,Bourcefranc-le-Chapus,45.844974,-1.146361
17,Centre d'incendie et de secours de Brizambourg,4 Rue du Puits Chevalier,17770,Brizambourg,45.817712,-0.477708
17,Centre d'incendie et de secours de Bussac Forêt,20 Route de Blaye,17210,Bussac-Forêt,45.211256,-0.372144
17,Centre d'incendie et de secours de Châtelaillon-Plage,1 Simone VEIL,17340,Châtelaillon-Plage,46.069408,-1.085712
17,Centre d'incendie et de secours de Courçon,3 Chemin des Tumulus,17170,Courçon,46.234777,-0.812376
17,Centre d'incendie et de secours de Cozes,19bis Impasse du Centre de Secours,17120,Cozes,45.581590,-0.838707
17,Centre d'incendie et de secours de Cramchaban La Laigne,27 Grande Rue,17170,Cram-Chaban,46.221362,-0.726471
17,Centre d'incendie et de secours de Gémozac,36 Rue Carnot,17260,Gémozac,45.568526,-0.682436
17,Centre d'incendie et de secours de l'Île-d'Aix,43 Rue Marengo,17123,Île-d'Aix,46.012314,-1.176927
17,Centre d'incendie et de secours de Jonzac,2953 Boulevard Rene Gautret,17500,Jonzac,45.448673,-0.435895
17,,5 Rue des Caillotières,17630,La Flotte,46.180027,-1.325388
17,Centre d'incendie et de secours de La-Flotte-en-Ré,5 Rue des Caillotières,17630,La Flotte,46.180073,-1.325216
17,Centre d'incendie et de secours de La Rochelle Villeneuve-les-Salines,47 Rue du Pont des Salines,17000,La Rochelle,46.157452,-1.119264
17,Centre d'incendie et de secours de La Rochelle Mireuil,24 Avenue du Général Mangin,17000,La Rochelle,46.165831,-1.182563
17,Centre d'incendie et de secours de La Ronde,3 Rue du Port,17170,La Ronde,46.301125,-0.808177
17,Centre d'incendie et de secours de La Tremblade,22 Rue des Brassons,17390,La Tremblade,45.762024,-1.135045
17,Centre d'incendie et de secours du Bois-Plage-en-Ré,6 Avenue du Pas des Boeufs,17580,Le Bois-Plage-en-Ré,46.184612,-1.387158
17,Centre d'incendie et de secours du Château-d'Oléron,Rue de l’Ancienne Distillerie,17480,Le Château-d'Oléron,45.883131,-1.220021
17,Centre d'incendie et de secours de Les Portes-en-Ré,32 Rue de Villeneuve,17880,Les Portes-en-Ré,46.248140,-1.502976
17,Centre d'incendie et de secours de Loulay,1 Rue de la Gare,17330,Loulay,46.045117,-0.511609
17,Centre d'incendie et de secours de Marans,27 Avenue de la Gare,17230,Marans,46.305593,-0.996986
17,Centre d'incendie et de secours de Marennes,28 Rue du Docteur Roux,17320,Marennes-Hiers-Brouage,45.824930,-1.094037
17,Centre d'incendie et de secours de Matha,1 Place du Château d'Eau,17160,Matha,45.869829,-0.316567
17,Centre d'incendie et de secours de Meschers-sur-Gironde,59 Boulevard du Marais,17132,Meschers-sur-Gironde,45.564672,-0.952195
17,Centre d'incendie et de secours de Migron-Burie,17 Avenue de la République,17770,Migron,45.804354,-0.399273
17,Centre d'incendie et de secours de Mirambeau,2 Rue du Parc des Loisirs,17150,Mirambeau,45.378327,-0.568188
17,Centre d'incendie et de secours de Montendre,25 Boulevard de Saintonge,17130,Montendre,45.288620,-0.402648
17,Centre d'incendie et de secours de Montguyon,16 Place du Champ de Foire,17270,Montguyon,45.216820,-0.185968
17,Centre d'incendie et de secours de Montlieu la Garde,42 Avenue de la République,17210,Montlieu-la-Garde,45.244810,-0.258569
17,Centre d'incendie et de secours de Mortagne-sur-Gironde,1 Route de l’Estuaire,17120,Mortagne-sur-Gironde,45.480780,-0.789582
17,Centre d'incendie et de secours de Néré,20 Rue de la Dordouille,17510,Néré,45.972623,-0.235565
17,Centre d'incendie et de secours de Pérignac,6 Chemin des Agrieres,17800,Pérignac,45.619529,-0.470415
17,Centre d'incendie et de secours de Pons,6 Place de l'Europe,17800,Pons,45.580354,-0.552833
17,Centre d'incendie et de secours de Pont-l'Abbé-d'Arnoult,55 Avenue du Maréchal Leclerc,17250,Pont-l'Abbé-d'Arnoult,45.825726,-0.878191
17,Service Départemental d'Incendie et de Secours,Vieille Forme,17300,Rochefort,45.943834,-0.956622
17,Centre d'incendie et de secours de Rochefort-sur-Mer,98 Rue des Pecheurs d'Islande,17300,Rochefort,45.948327,-0.992622
17,CIS Rochefort-sur-mer,1a Avenue de la Liberation,17300,Rochefort,45.949901,-0.947598
17,Centre d'incendie et de secours de Royan,90 Avenue Daniel Hedde,17200,Royan,45.638904,-1.027280
17,Centre d'incendie et de secours de Saint-Aigulin,6 Place de la Victoire,17360,Saint-Aigulin,45.157620,-0.011232
17,Centre d'incendie et de secours de Saint-Denis-d'Oléron,6 Route de la Brée,17650,Saint-Denis-d'Oléron,46.030791,-1.376781
17,Centre d'incendie et de secours de Saint-Fort-sur-Gironde,38 Rue du Stade,17240,Saint-Fort-sur-Gironde,45.458810,-0.719032
17,Centre d'incendie et de secours de Saint-Genis-de-Saintonge,1 Stade de la Candellerie,17240,Saint-Genis-de-Saintonge,45.475293,-0.570098
17,Centre d'incendie et de secours de Saint-Hilaire-de-Villefranche,7 Rue du Champ de Foire,17770,Saint-Hilaire-de-Villefranche,45.850619,-0.526595
17,Centre d'incendie et de secours de Saint-Jean-d'Angély,10 Rue du Colonel Roland Renoux,17400,Saint-Jean-d'Angély,45.954073,-0.532523
17,Centre d'incendie et de secours de Saint-Jean-de-Liversay Taugon,8 Rue Beauvallon,17170,Saint-Jean-de-Liversay,46.266454,-0.876339
17,Centre d'incendie et de secours de Saint-Martin-de-Ré,18 Rue des Salières,17410,Saint-Martin-de-Ré,46.195975,-1.352948
17,Centre d'incendie et de secours de Saint-Palais-sur-Mer,37 Chemin des Ajoncs,17420,Saint-Palais-sur-Mer,45.656175,-1.085741
17,Centre d'incendie et de secours de Saint-Pierre-d'Oléron,7 Rue du Colonel Durand,17310,Saint-Pierre-d'Oléron,45.941747,-1.311131
17,Centre d'incendie et de secours de Saint-Germain-de-Marencennes,Centre de Premières Interventions de St-Germain-de-Marencennes (Saint-Germain-de-Marencennes),17700,Saint-Pierre-La-Noue,46.078143,-0.783659
17,Centre d'incendie et de secours de Saint-Porchaire,29 Rue du Collège,17250,Saint-Porchaire,45.819925,-0.768667
17,Centre d'Incendie et de Secours de Ferrières-d'Aunis Le Gué d'Alleré Nuaillé d'Aunis Saint-Sauveur-d'Aunis,5 Impasse de Porte Fache,17540,Saint-Sauveur-d'Aunis,46.230677,-0.881137
17,Centre d'incendie et de secours de Saint-Savinien,7 Rue de l’Avenir,17350,Saint-Savinien,45.871448,-0.673697
17,Centre d'incendie et de secours de Saint-Trojan-les-Bains,2 Rue Marcelle Tinayre,17370,Saint-Trojan-les-Bains,45.840623,-1.205175
17,Centre d'incendie et de secours de Sainte-Marie-de-Ré,Moulin de l'Abbé,17740,Sainte-Marie-de-Ré,46.154989,-1.313464
17,Centre d'incendie et de secours de Bourgneuf Sainte-Soulle,211 Route de Loiré,17220,Sainte-Soulle,46.191487,-1.004601
17,SDIS 17 - Pôle territorial Est,7 Rue des Fougères,17100,Saintes,45.742048,-0.663470
17,Centre d'incendie et de secours de Saintes,4 Rue de l'Echalas,17100,Saintes,45.740523,-0.653339
17,Centre d'incendie et de secours de Saujon,2 Route de l'Ilate,17600,Saujon,45.682119,-0.931458
17,Centre d'incendie et de secours de Surgères,47 Rue Jean Jaurès,17700,Surgères,46.113033,-0.756058
17,Centre d'incendie et de secours de Thairé,8 Rue Eugene Chaussat,17290,Thairé,46.071091,-1.009808
17,Centre d'incendie et de secours de Tonnay-Boutonne,3 Avenue de la Garenne,17380,Tonnay-Boutonne,45.968985,-0.709906
17,Centre d'incendie et de secours de Tonnay-Charente,13 Rue du Champ de Foire,17430,Tonnay-Charente,45.944927,-0.892026
17,Centre d'incendie et de secours d'Angliers-Vérines,16bis Rue de la Verrerie,17540,Vérines,46.192063,-0.965746
18,Centre d'Incendie et de Secours d'Argent-sur-Sauldre,1ter Les Combes,18410,Argent-sur-Sauldre,47.554487,2.446953
18,Centre d'incendie et de secours d'Aubigny-sur-Nère,4 Rue Flottille 34F,18700,Aubigny-sur-Nère,47.473771,2.435931
18,Centre d'incendie et de secours d'Avord,Place de l'Ordre National du Mérite,18520,Avord,47.033186,2.651680
